{"type":"FeatureCollection","features":[{"type":"Feature","geometry":{"type":"Point","coordinates":[127.032047,37.514647]},"properties":{"StoreName":"학동역 DT점","StoreTel":"02-3444-9973","StoreAddress":"서울시 강남구 학동로 211 1층","StoreOpendate":"평일 : 07:00~23:00 ㅣ 주말 : 08:00~22:00","StoreShortDesc":"발렛주차 가능<br/>※ DT(드라이브 스루) 매장입니다.","StoreEmail":"cbk001@coffeebeankorea.com"}},{"type":"Feature","geometry":{"type":"Point","coordinates":[127.103109,37.487283]},"properties":{"StoreName":"수서점","StoreTel":"02-3412-2326","StoreAddress":"서울시 강남구 광평로 280 수서동 724호","StoreOpendate":"평일07:30~24:00 (토.일.공휴일동일)","StoreShortDesc":"5,000원이상 1시간 무료주차, 15,000원이상 2시간 무료주차( 건물 지하주차창이용)","StoreEmail":"cbk002@coffeebeankorea.com"}},{"type":"Feature","geometry":{"type":"Point","coordinates":[127.0348,37.506571]},"properties":{"StoreName":"차병원점","StoreTel":"02-538-7615","StoreAddress":"서울시 강남구 논현로 566 강남차병원1층","StoreOpendate":"평일 07:30~20:00 ㅣ 토요일/공휴일 07:30~17:00 ㅣ 일요일 휴무 ","StoreShortDesc":"병원주차장 이용가능 (병원방문시 무료)","StoreEmail":"cbk014@coffeebeankorea.com"}},{"type":"Feature","geometry":{"type":"Point","coordinates":[127.036553,37.499927]},"properties":{"StoreName":"스타타워점","StoreTel":"02-2112-2953","StoreAddress":"서울시 강남구 테헤란로152 강남파이낸스빌딩1층10-A호","StoreOpendate":"월-금 07:00~22:30|토요일 08:00~21:00|일/공휴일 11:00~19:00","StoreShortDesc":"무료주차2시간가능(1만원이상구매고객)-건물지하2층,3층 주차장(무인 시스템 주차)","StoreEmail":"cbk011@coffeebeankorea.com"}},{"type":"Feature","geometry":{"type":"Point","coordinates":[127.028203,37.495615]},"properties":{"StoreName":"강남대로점","StoreTel":"02-588-5778","StoreAddress":"서울시 서초구 강남대로 369 1층","StoreOpendate":"평일07:00~00:00 , 토.일.공휴일07:30~00:00","StoreShortDesc":"15,000원 이상 구매시 1시간 무료 주차 가능(건물 지하 주차장 이용, 대형 차량 불가)","StoreEmail":"cbk032@coffeebeankorea.com"}},{"type":"Feature","geometry":{"type":"Point","coordinates":[127.058582,37.510194]},"properties":{"StoreName":"메가박스점","StoreTel":"02-6002-3320","StoreAddress":"서울시 강남구 영동대로 513 코엑스몰내지하2층","StoreOpendate":"월-목 07:30~24:00|금-토 07:30~25:00|일/공휴일 07:30~24:00","StoreShortDesc":"<콘센트 이용가능> / 주차불가","StoreEmail":"cbk015@coffeebeankorea.com"}},{"type":"Feature","geometry":{"type":"Point","coordinates":[127.032782,37.523315]},"properties":{"StoreName":"언주로점","StoreTel":"02-546-3871","StoreAddress":"서울시 강남구 언주로 819 18호 1층","StoreOpendate":"평일 : 07:30~23:00 / 주말 : 07:30~22:30","StoreShortDesc":"발렛주차가능 발렛비2,000원(2시간) 30분 추가시 1,000원 추가<br/>[콘센트사용가능]","StoreEmail":"cbk034@coffeebeankorea.com"}},{"type":"Feature","geometry":{"type":"Point","coordinates":[127.036897,37.528249]},"properties":{"StoreName":"압구정에스점","StoreTel":"02-541-5832","StoreAddress":"서울시 강남구 압구정로 46길 3","StoreOpendate":"평일 : 08:00~24:00 / 주말 : 08:00~24:00","StoreShortDesc":"무료주차가능-건물뒤편4대까지 가능","StoreEmail":"cbk040@coffeebeankorea.com"}},{"type":"Feature","geometry":{"type":"Point","coordinates":[127.026035,37.50027]},"properties":{"StoreName":"강남에스점","StoreTel":"02-593-5095","StoreAddress":"서울시 서초구 서초 1306-3호","StoreOpendate":"월~일요일 07:30~00:00","StoreShortDesc":"무료주차불가","StoreEmail":"cbk045@coffeebeankorea.com"}},{"type":"Feature","geometry":{"type":"Point","coordinates":[127.047218,37.525218]},"properties":{"StoreName":"청담에스점","StoreTel":"02-548-6052","StoreAddress":"서울시 강남구 압구정로 461 네이처포엠빌딩B108,109호","StoreOpendate":"월-금요일 07:30~00;00 | 토-일/공휴일 08;00~00:00","StoreShortDesc":"건물지하 주차가능(5,000원 이상 구매시 30분 무료지급/10,000원 이상 구매시 1시간/15,000원 이상 구매시 1시간 30분)","StoreEmail":"cbk046@coffeebeankorea.com"}},{"type":"Feature","geometry":{"type":"Point","coordinates":[127.022398,37.516924]},"properties":{"StoreName":"신사점","StoreTel":"02-548-2741","StoreAddress":"서울시 강남구 도산대로 126","StoreOpendate":"평일 07:30~00:00 ㅣ토요일 09:00~00:00 ㅣ 일요일 09:00~22:30","StoreShortDesc":"주차불가<br/>","StoreEmail":"cbk047@coffeebeankorea.com"}},{"type":"Feature","geometry":{"type":"Point","coordinates":[127.028732,37.524]},"properties":{"StoreName":"압구정역점","StoreTel":"02-544-6823","StoreAddress":"서울시 강남구 논현로 842 압구정빌딩1층","StoreOpendate":"월-금 07:30~24:00 | 토-일/공휴일 08:00~24:00","StoreShortDesc":"무료1시간주차가능-건물지하3층,4층","StoreEmail":"cbk049@coffeebeankorea.com"}},{"type":"Feature","geometry":{"type":"Point","coordinates":[127.03651,37.5023]},"properties":{"StoreName":"역삼점","StoreTel":"02-569-8051","StoreAddress":"서울시 강남구 논현로 512  지상1,2층","StoreOpendate":"월-금요일 07:30-24:00 | 토요일 07:30~24:00 ㅣ 일/공휴일 08:00-24:00","StoreShortDesc":"무료주차불가","StoreEmail":"cbk050@coffeebeankorea.com"}},{"type":"Feature","geometry":{"type":"Point","coordinates":[127.034922,37.482717]},"properties":{"StoreName":"양재스포타임점","StoreTel":"02-578-6833","StoreAddress":"서울시 서초구 강남대로 213 24호 지하1층","StoreOpendate":"월-금요일 07:30~23:00 |  토-일/공휴일 08:00~23:00","StoreShortDesc":"구매금액 1만원당 30분 주차권 증정, 이후 10분당 1천원 추가","StoreEmail":"cbk053@coffeebeankorea.com"}},{"type":"Feature","geometry":{"type":"Point","coordinates":[127.050031,37.519871]},"properties":{"StoreName":"청담성당점","StoreTel":"02-542-2053","StoreAddress":"서울시 강남구 삼성로 716 LEE76빌딩2층","StoreOpendate":"월-일/공휴일 08:00~22:30","StoreShortDesc":"주차가능 (발렛파킹 : 19:00까지) / 2000원/한 시간 당 추가금액 1000원","StoreEmail":"cbk058@coffeebeankorea.com"}},{"type":"Feature","geometry":{"type":"Point","coordinates":[127.022823571,37.5068515331]},"properties":{"StoreName":"영동점","StoreTel":"02-3443-2096","StoreAddress":"서울 서초구 반포동 736-17 P빌딩 2층","StoreOpendate":"월~토 08:00~24:00|일요일 09:00~24:00(공휴일포함)","StoreShortDesc":"주차불가","StoreEmail":"cbk061@coffeebeankorea.com"}},{"type":"Feature","geometry":{"type":"Point","coordinates":[127.051548,37.487296]},"properties":{"StoreName":"도곡점","StoreTel":"02-572-2781","StoreAddress":"서울시 강남구 언주로 30길 10,112 현대비젼21 112호","StoreOpendate":"월-금 07:30~24:00 | 토-일/공휴일 08:00~24:00","StoreShortDesc":"1시간30분 무료주차가능(시간초과시,10분당500원)/건물지하주차장","StoreEmail":"cbk064@coffeebeankorea.com"}},{"type":"Feature","geometry":{"type":"Point","coordinates":[127.039457,37.521444]},"properties":{"StoreName":"영동고앞점","StoreTel":"02-544-3794","StoreAddress":"서울시 강남구 선릉로 749 1,2층","StoreOpendate":"월-금요일 07:30~00:00 | 토-일/공휴일 08:00~23:00","StoreShortDesc":"1대 주차 이용공간(무료)","StoreEmail":"cbk068@coffeebeankorea.com"}},{"type":"Feature","geometry":{"type":"Point","coordinates":[127.058334,37.508669]},"properties":{"StoreName":"공항터미널앞점","StoreTel":"02-539-5174","StoreAddress":"서울시 강남구 테헤란로 87길 17 1층","StoreOpendate":"월-금요일 07:30~24:00 | 토요일 08:00~23:00 일/공휴일 08:00~23:00","StoreShortDesc":"1시간 무료주차 (30분 초과당 2,000원 부과)","StoreEmail":"cbk074@coffeebeankorea.com"}},{"type":"Feature","geometry":{"type":"Point","coordinates":[127.014216,37.492351]},"properties":{"StoreName":"교대점","StoreTel":"02-585-3981","StoreAddress":"서울시 서초구 서초중앙로 118  1층","StoreOpendate":"월~목 07:30~23:00 | 금 07:30~24:00 | 토,일 08:00~23:00","StoreShortDesc":"와이파이 사용가능 / 주차불가","StoreEmail":"cbk077@coffeebeankorea.com"}},{"type":"Feature","geometry":{"type":"Point","coordinates":[127.054157,37.498257]},"properties":{"StoreName":"대치한티점","StoreTel":"02-557-0510","StoreAddress":"서울시 강남구 선릉로 64길 23 1층","StoreOpendate":"월-목요일 08:00 ~ 23:00 / 금,토요일  08:00 ~ 24:00 / 일요일 08:00 ~ 23:00","StoreShortDesc":"◈ KT 와이파이 이용가능 매장 ◈ 주차불가","StoreEmail":"cbk079@coffeebeankorea.com"}},{"type":"Feature","geometry":{"type":"Point","coordinates":[127.036979,37.523697]},"properties":{"StoreName":"압구정시티점","StoreTel":"02-543-5922","StoreAddress":"서울시 강남구 도산대로49길 13 1층 17,18호","StoreOpendate":"월-목,일요일 8:30~23:00 | 금,토요일 8:30~24:00","StoreShortDesc":"<와이파이이용가능> 발렛주차가능 1시간 2,000원 30분 초과당 1,000원 부과","StoreEmail":"cbk082@coffeebeankorea.com"}},{"type":"Feature","geometry":{"type":"Point","coordinates":[127.038992,37.526062]},"properties":{"StoreName":"압구정로데오점","StoreTel":"02-3445-5093","StoreAddress":"서울시 강남구 선릉로 157길 12 석전빌딩 1~4층","StoreOpendate":"평일 08:30~23:00 | 주말,공휴일 09:00~23:00","StoreShortDesc":"<와이파이이용가능> 발렛주차가능 (오전11시~오후11시) 1시간 2,000원(기본) 30분 초과당 1,000원 부과","StoreEmail":"cbk083@coffeebeankorea.com"}},{"type":"Feature","geometry":{"type":"Point","coordinates":[127.03025,37.491249]},"properties":{"StoreName":"서초우성점","StoreTel":"02-582-0158","StoreAddress":"서울시 서초구 서초동 1338-11호 블루타워지상1층","StoreOpendate":"월-금요일 07:30~24:00 | 토-일/공휴일 08:00~24:00","StoreShortDesc":"유료주차장 10분 초과당 800원 부과","StoreEmail":"cbk084@coffeebeankorea.com"}},{"type":"Feature","geometry":{"type":"Point","coordinates":[127.036561,37.510003]},"properties":{"StoreName":"논현팍스타워점","StoreTel":"02-513-3870","StoreAddress":"서울시 강남구 논현 231-13호 팍스타워지하1층","StoreOpendate":"월-금 07:30~23:00 ㅣ 주말/공휴일 09:00~22:30","StoreShortDesc":"1시간 무료주차 (건물 지하3층 주차장)","StoreEmail":"cbk090@coffeebeankorea.com"}},{"type":"Feature","geometry":{"type":"Point","coordinates":[127.059159722,37.5118232811]},"properties":{"StoreName":"삼성오크우드점","StoreTel":"02-3466-8507","StoreAddress":"서울 강남구 영동대로 513 컨벤션별관A동 지하 2층","StoreOpendate":"평일08:00~21:30, 토.일.공휴일 09:30~20:00","StoreShortDesc":"승용차-최초 30분 2,400원/15분당 1,200원/1일 주차시 4만 8천원 화물차-승용차 주차 요금의 2배","StoreEmail":"cbk092@coffeebeankorea.com"}},{"type":"Feature","geometry":{"type":"Point","coordinates":[127.0610225377,37.5103554984]},"properties":{"StoreName":"트레이드타워점","StoreTel":"02-6002-6470","StoreAddress":"서울시 강남구 영동대로 511 트레이드타워 지하1층","StoreOpendate":"월-금 07:00~21:30 | 토-일/공휴일 08:00~22:00","StoreShortDesc":"건물 유료주차장 (공항타워 지하2~4층)","StoreEmail":"cbk100@coffeebeankorea.com"}},{"type":"Feature","geometry":{"type":"Point","coordinates":[127.059475,37.514524]},"properties":{"StoreName":"삼성봉은사거리점","StoreTel":"02-3443-5618","StoreAddress":"서울시 강남구 영동대로 607 12번지 1,2층","StoreOpendate":"월-수요일 07:30~23:00 | 목-금요일 07:30~00:00 | 토요일 08:00~00:00 | 일,공휴일 09:00~23:00","StoreShortDesc":"건물뒷편주차장(기계주차식) 평일 최초 30분 2,000원 / 1시간 5,000원 (구매영수증 지참시 30분 2,000원 / 1시간 3,500원 1시간 초과시 10분당 1,000원 ( 평일,주말 동일 )","StoreEmail":"cbk101@coffeebeankorea.com"}},{"type":"Feature","geometry":{"type":"Point","coordinates":[127.056471,37.504681]},"properties":{"StoreName":"대치포스코뒷점","StoreTel":"02-3453-8077","StoreAddress":"서울시 강남구 삼성로 85길 11 롯데캐슬아파트생활편익시설동","StoreOpendate":"월-금 07:30~23:00 | 토 09:00~22:00 ㅣ 일/공휴일 09:00~21:00 ","StoreShortDesc":"주차불가","StoreEmail":"cbk102@coffeebeankorea.com"}},{"type":"Feature","geometry":{"type":"Point","coordinates":[127.1030334038,37.5162585329]},"properties":{"StoreName":"잠실홈플러스점","StoreTel":"02-413-9561","StoreAddress":"서울 송파구 신천동 7-12 홈플러스잠실점 1층","StoreOpendate":"월~일 08:00~23:00 / 2,4째주 일요일 : 휴무","StoreShortDesc":"주차 1시간 - 3만원이상, 2시간 - 5만원이상, 3시간 - 7만원이상","StoreEmail":"cbk109@coffeebeankorea.com"}},{"type":"Feature","geometry":{"type":"Point","coordinates":[126.987217,37.501706]},"properties":{"StoreName":"반포엘루체점","StoreTel":"02-3477-5571","StoreAddress":"서울시 서초구 신반포로 23 1141호 엘루체백화점내1층1013~1015호","StoreOpendate":"평일8:00-23:00(토.일.공휴일동일)","StoreShortDesc":"주차불가","StoreEmail":"cbk111@coffeebeankorea.com"}},{"type":"Feature","geometry":{"type":"Point","coordinates":[127.090058,37.507402]},"properties":{"StoreName":"잠실신천점","StoreTel":"02-416-9520","StoreAddress":"서울시 송파구 석촌호수로 118 1층","StoreOpendate":"월~일요일 07:30~00:00","StoreShortDesc":" 1시간 무료주차가능-건물옆에 주차타워(기계주차식)-대형차량불가","StoreEmail":"cbk016@coffeebeankorea.com"}},{"type":"Feature","geometry":{"type":"Point","coordinates":[127.016403,37.495414]},"properties":{"StoreName":"서초지파이브점","StoreTel":"02-3477-5580","StoreAddress":"서울시 서초구 서초동 1685-8호 101~2호,113~4호,121호","StoreOpendate":"월-금 07:30~23:00 | 토-일/공휴일 08:00~23:00","StoreShortDesc":"1만원이상 구매시 1시간 무료 주차, 2만원이상 구매시 2시간 무료 주차(매장 최대 주차 2시간 무료 가능),(매장입점 건물인 G-Five건물 지하 2~3층 주차장)","StoreEmail":"cbk126@coffeebeankorea.com"}},{"type":"Feature","geometry":{"type":"Point","coordinates":[127.012358,37.492921]},"properties":{"StoreName":"교대역점","StoreTel":"02-3473-3830","StoreAddress":"서울시 서초구 서초대로  280 1층","StoreOpendate":"월-금 07:30~24:00 | 토-일/공휴일 08:00~24:00","StoreShortDesc":"주차불가","StoreEmail":"cbk128@coffeebeankorea.com"}},{"type":"Feature","geometry":{"type":"Point","coordinates":[127.029524,37.515922]},"properties":{"StoreName":"논현동수면센터점","StoreTel":"02-3443-5575","StoreAddress":"서울시 강남구 논현로 717 1층","StoreOpendate":"월, 토요일 : 08:00 - 22:00 / 일요일 : 09:00 - 22:00","StoreShortDesc":"병원 건물 주차장 사용 - 발렛비 2000원 발생, 일요일과 공휴일 무료 주차가능","StoreEmail":"cbk129@coffeebeankorea.com"}},{"type":"Feature","geometry":{"type":"Point","coordinates":[127.04083,37.525391]},"properties":{"StoreName":"청담점","StoreTel":"02-515-8542","StoreAddress":"서울시 강남구 선릉로 158길 10  88호 1층","StoreOpendate":"평일 08:30~22:00 I 토요일 09:00~22:00 ㅣ 일요일/공휴일 09:00~20:00","StoreShortDesc":"발렛주차가능 (건물 지하1층), 1시간 30분(기본) 2,000원, 30분 초과시 1,000원 부과 이후 10분 초과당 1,000원 부과","StoreEmail":"cbk138@coffeebeankorea.com"}},{"type":"Feature","geometry":{"type":"Point","coordinates":[127.025316,37.500221]},"properties":{"StoreName":"강남역142호점","StoreTel":"02-3477-5501","StoreAddress":"서울시 서초구 강남대로 65길 7 1층","StoreOpendate":"월~목요일 07:30~00:00 | 금요일 07:30~01:00 | 토요일 08:00~01:00 | 일요일 08:00~00:00","StoreShortDesc":"주차불가","StoreEmail":"cbk142@coffeebeankorea.com"}},{"type":"Feature","geometry":{"type":"Point","coordinates":[127.026902,37.496609]},"properties":{"StoreName":"삼성전자강남사옥점","StoreTel":"02-2055-1142","StoreAddress":"서울시 서초구 서초대로74길 11 지하2층","StoreOpendate":"월-금요일 07:00~19:30 | 토 10:00~18:00 ㅣ일요일휴무","StoreShortDesc":"1시간 무료주차 (영수증 지참시)","StoreEmail":"cbk143@coffeebeankorea.com"}},{"type":"Feature","geometry":{"type":"Point","coordinates":[127.057935,37.492387]},"properties":{"StoreName":"대치도곡역점","StoreTel":"02-2051-5686","StoreAddress":"서울시 강남구 남부순환로 2911 104호","StoreOpendate":"월-금 08:00~23:00 ㅣ 토,일,공휴일 08:00~23:00","StoreShortDesc":"1시간 무료주차 (5,000원 이상 구매시)<br/>","StoreEmail":"cbk144@coffeebeankorea.com"}},{"type":"Feature","geometry":{"type":"Point","coordinates":[127.142244,37.545658]},"properties":{"StoreName":"강동홈플러스점","StoreTel":"02-472-2216","StoreAddress":"서울시 강동구 양재대로 1571 강동홈플러스1층","StoreOpendate":"월-일/공휴일10:00~22:30 ㅣ 둘째 넷째 일요일 10:00~22:00분 까지)","StoreShortDesc":"지하주차장이용 1시간~최대 3시간 무료주차 (1만원 이상 구매시)","StoreEmail":"cbk145@coffeebeankorea.com"}},{"type":"Feature","geometry":{"type":"Point","coordinates":[127.0257,37.49671]},"properties":{"StoreName":"삼성생명강남사옥점","StoreTel":"02-581-5562","StoreAddress":"서울시 서초구 서초대로74길 4 삼성생명보험서초타워내지하1층","StoreOpendate":"월-금요일 07:30~19:30 | 토-일/공휴일 휴무","StoreShortDesc":"1시간 무료주차","StoreEmail":"cbk148@coffeebeankorea.com"}},{"type":"Feature","geometry":{"type":"Point","coordinates":[126.9855344034,37.495709211]},"properties":{"StoreName":"방배카페골목점","StoreTel":"02-592-7794","StoreAddress":"서울특별시 서초구 방배중앙로 187","StoreOpendate":"평일09:00~23:30(토.일.공휴일동일)","StoreShortDesc":"커피빈 이용시 모든 고객 30분 무료, 1시간 무료(7000원 이상 구매시) /       30분 초과당 1500원  /       발렛비 1000원 별도 부과","StoreEmail":"cbk153@coffeebeankorea.com"}},{"type":"Feature","geometry":{"type":"Point","coordinates":[127.034129,37.499048]},"properties":{"StoreName":"역삼포스틸타워뒷점","StoreTel":"02-554-9962","StoreAddress":"서울시 강남구 테헤란로 20길 10 쓰리엠타워1층","StoreOpendate":"평일07:30~23:00|토요일08:00~23:00|일요일09:00~23:00(공휴일동일)","StoreShortDesc":"","StoreEmail":"cbk158@coffeebeankorea.com"}},{"type":"Feature","geometry":{"type":"Point","coordinates":[127.053144,37.504702]},"properties":{"StoreName":"테헤란로하이닉스뒷점","StoreTel":"02-538-9927","StoreAddress":"서울시 강남구 테헤란로 70길 12 1층","StoreOpendate":"평일07:30~24:00 |토요일08:00~23:00 |일요일08:00~23:00(공휴일동일)","StoreShortDesc":"구매영수증 지참 시 30분 무료(10분씩 1000원 주차요금)-대형차량불가 ","StoreEmail":"cbk159@coffeebeankorea.com"}},{"type":"Feature","geometry":{"type":"Point","coordinates":[126.996929,37.481427]},"properties":{"StoreName":"방배역점","StoreTel":"02-521-4562","StoreAddress":"서울시 서초구 효령로 117  3,4층","StoreOpendate":"평일 : 09:00- 22:30 / 주말,공휴일 : 09:00 - 22:00","StoreShortDesc":"주차불가","StoreEmail":"cbk167@coffeebeankorea.com"}},{"type":"Feature","geometry":{"type":"Point","coordinates":[127.06415,37.514631]},"properties":{"StoreName":"삼성봉은사로점","StoreTel":"02-538-4523","StoreAddress":"서울시 강남구 봉은사로 628 엘슨빌딩1층","StoreOpendate":"평일 07:30~23:00 | 토-일/공휴일 08:00~22:00","StoreShortDesc":"유료주차 최초 1시간 3,000원 초과시 30분당 1,500원 주말 및 공휴일 오후 6시 부터 무료주차","StoreEmail":"cbk172@coffeebeankorea.com"}},{"type":"Feature","geometry":{"type":"Point","coordinates":[127.107967246142,37.5145530316919]},"properties":{"StoreName":"방이점","StoreTel":"02-415-5561","StoreAddress":"서울시 송파구 오금로 11길 7","StoreOpendate":"월-목 07:30~00:00 ㅣ 금요일 07:30~01:00 ㅣ 토요일 08:00~01:00 ㅣ 일요일(공휴일) 08:00~00:00","StoreShortDesc":"건물 주차장 발렛 2대 가능(유료주차)","StoreEmail":"cbk176@coffeebeankorea.com"}},{"type":"Feature","geometry":{"type":"Point","coordinates":[127.045051,37.485536]},"properties":{"StoreName":"매봉역점","StoreTel":"02-529-9947","StoreAddress":"서울시 강남구 논현로 38길 42 418호","StoreOpendate":"평일 : 07:30 - 24:00 / 주말,공휴일 : 08:00 - 23:00","StoreShortDesc":"주차공간따로 없음. 매장주변으로 노란선안에 3대정도 주차가능.","StoreEmail":"cbk177@coffeebeankorea.com"}},{"type":"Feature","geometry":{"type":"Point","coordinates":[127.015558,37.485493]},"properties":{"StoreName":"남부터미널역점","StoreTel":"02-523-3671","StoreAddress":"서울시 서초구 서초중앙로 43 로얄타워1층","StoreOpendate":"주중,주말,공휴일  08:00 ~ 23:00","StoreShortDesc":"1시간 무료주차 가능 / 1시간 이후 시간당 3,000원 금액발생 (건물1층 기계식 주차장) 외제차,RV차량 주차 불가 (평일 ~오후 10시까지 / 주말 ~오후 9시까지 이용가능)","StoreEmail":"cbk183@coffeebeankorea.com"}},{"type":"Feature","geometry":{"type":"Point","coordinates":[127.030072,37.496499]},"properties":{"StoreName":"강남역랭기지타워점","StoreTel":"02-563-3655","StoreAddress":"서울시 강남구 테헤란로4길 28 826-28호 1층","StoreOpendate":"평일 07:30~23:00 |토, 일, 공휴일 08:00~23:00","StoreShortDesc":"30분 무료주차 10분 추가시 1,000원 3시간 이용시 6,000원 (고정요금)","StoreEmail":"cbk194@coffeebeankorea.com"}},{"type":"Feature","geometry":{"type":"Point","coordinates":[127.046617,37.518388]},"properties":{"StoreName":"강남구청앞점","StoreTel":"02-546-3783","StoreAddress":"서울시 강남구 학동로 423","StoreOpendate":"월-금 07:30~22:00 ㅣ 주말/공휴일 09:00~22:00","StoreShortDesc":"주차불가<br/>","StoreEmail":"cbk196@coffeebeankorea.com"}},{"type":"Feature","geometry":{"type":"Point","coordinates":[127.0585974668,37.5102341897]},"properties":{"StoreName":"도심공항타워점","StoreTel":"02-2016-5330","StoreAddress":"서울시 강남구 테헤란로87길 36 공항타워 1층","StoreOpendate":"월-금07:30~24:00|토요일08:00~24:00|일요일08:00~23:00(공휴일동일)","StoreShortDesc":"유료주차 (코엑스몰 주차장)","StoreEmail":"cbk200@coffeebeankorea.com"}},{"type":"Feature","geometry":{"type":"Point","coordinates":[127.031423,37.484682]},"properties":{"StoreName":"서초구청앞점","StoreTel":"02-581-5108","StoreAddress":"서울시 서초구 서초 1365-10 서초빌딩 1층","StoreOpendate":"평일07:30~23:00|주말09:00~23:00","StoreShortDesc":"1시간 무료주차(건물바로뒤쪽 주차가능)","StoreEmail":"cbk207@coffeebeankorea.com"}},{"type":"Feature","geometry":{"type":"Point","coordinates":[127.044413,37.52446]},"properties":{"StoreName":"청담카페점","StoreTel":"02-514-5622","StoreAddress":"서울시 강남구 도산대로 67길 7,파크빌딩 1층","StoreOpendate":"월-금 07:30~24:00 | 토-일/공휴일 08:00~24:00","StoreShortDesc":"발렛주차가능(10시~22:30분까지) 2시간 3,000원(기본), 30분 초과당 1,000원 부과","StoreEmail":"cbk213@coffeebeankorea.com"}},{"type":"Feature","geometry":{"type":"Point","coordinates":[126.98068,37.518527]},"properties":{"StoreName":"동부이촌동점","StoreTel":"02-792-3677","StoreAddress":"서울시 용산구 이촌로 303 현대아파트상가11동102호","StoreOpendate":"일~목/공휴일 07:30~23:00 | 금,토 07:30~23:30","StoreShortDesc":"현대아파트 단지 내 2시간 주차가능","StoreEmail":"cbk022@coffeebeankorea.com"}},{"type":"Feature","geometry":{"type":"Point","coordinates":[126.9788596927,37.5697849117]},"properties":{"StoreName":"광화문점","StoreTel":"02-3210-2326","StoreAddress":"서울 종로구 서린동 136 센트리얼빌딩 1층","StoreOpendate":"월-토 7:30~ 23:30 |일/공휴일 9:00 ~23:30","StoreShortDesc":"유료주차 최초 30분 2,000원, 10분당 1,000원","StoreEmail":"cbk012@coffeebeankorea.com"}},{"type":"Feature","geometry":{"type":"Point","coordinates":[127.00256,37.58182]},"properties":{"StoreName":"대학로점","StoreTel":"02-762-3146","StoreAddress":"서울시 종로구 대학로 10길 5 1-60호","StoreOpendate":"평일(월~금요일)08:00~24:00 , 주말(토~일요일)08:00~24:00","StoreShortDesc":"무료주차시설 없음. 매장뒤 건물측 유료주차장 30분-2,000원","StoreEmail":"cbk029@coffeebeankorea.com"}},{"type":"Feature","geometry":{"type":"Point","coordinates":[126.972287,37.572535]},"properties":{"StoreName":"경희궁의아침","StoreTel":"02-730-8896","StoreAddress":"서울시 종로구 새문안로3길 23 경희궁아침상가4단지105외","StoreOpendate":"월-금요일 07:30~22:30 | 토-일/공휴일 09:00~21:00","StoreShortDesc":"건물지하3층 주차장( 1시간 무료주차 가능)","StoreEmail":"cbk031@coffeebeankorea.com"}},{"type":"Feature","geometry":{"type":"Point","coordinates":[126.9232684432,37.5554720666]},"properties":{"StoreName":"홍대역점","StoreTel":"02-333-4278","StoreAddress":"서울시 마포구 홍익로 6길 26","StoreOpendate":"월,화,수,목,일 08:00~24:00 / 금,토 08:00~25:00","StoreShortDesc":"주차불가","StoreEmail":"cbk056@coffeebeankorea.com"}},{"type":"Feature","geometry":{"type":"Point","coordinates":[126.946001,37.557163]},"properties":{"StoreName":"이대역점","StoreTel":"02-362-2038","StoreAddress":"서울시 서대문구 이화여대길6 지상1층,2층","StoreOpendate":"평일 08:00~23:00 ㅣ주말 08:00~23:00","StoreShortDesc":"◈ 와이파이 이용가능 매장 ◈ 주차불가","StoreEmail":"cbk063@coffeebeankorea.com"}},{"type":"Feature","geometry":{"type":"Point","coordinates":[126.969784,37.562782]},"properties":{"StoreName":"순화점","StoreTel":"02-2220-8198","StoreAddress":"서울시 중구 순화202  1-94 프레이저플레이스레지던스1층","StoreOpendate":"* 평일 - 07:30~22:00 / * 주말 - 09:00~22:00","StoreShortDesc":"1시간 무료주차(호텔 주차장) 시간 초과시 10분당 2,000원","StoreEmail":"cbk067@coffeebeankorea.com"}},{"type":"Feature","geometry":{"type":"Point","coordinates":[126.986714,37.568446]},"properties":{"StoreName":"종로관철동점","StoreTel":"02-738-5333","StoreAddress":"서울시 종로구 청계천로 83 11-4호 지하1,지상1~3층","StoreOpendate":"월요일-토요일7:30~24:00 일요일.공휴일9:00~24:00","StoreShortDesc":"무료주차불가 주변 유료주차장이용","StoreEmail":"cbk080@coffeebeankorea.com"}},{"type":"Feature","geometry":{"type":"Point","coordinates":[126.981154,37.56412]},"properties":{"StoreName":"소공동삼화빌딩점","StoreTel":"02-753-8004","StoreAddress":"서울시 중구 소공21호 삼화빌딩1층","StoreOpendate":"평일 07:30~20:00 ㅣ 주말/공휴일 08:00~19:00","StoreShortDesc":"유료주차시 1시간 3,000원 지불(금액은 변동될 수 있음)","StoreEmail":"cbk088@coffeebeankorea.com"}},{"type":"Feature","geometry":{"type":"Point","coordinates":[127.095709,37.534937]},"properties":{"StoreName":"강변테크노마트점","StoreTel":"02-3424-5480","StoreAddress":"서울시 광진구 광나루로56길 85 테크노마트9층35호","StoreOpendate":"평일10:00~22:00(토.일.공휴일동일)","StoreShortDesc":"지상 30분 무료주차, 지하 1시간 무료주차 / 주간 (9시~ 20시) / - 지상 2,000원 ,<br/>지하 1,000원, 야간 ( 20시~ 익일 9시) - 주간요금에서 50%할인","StoreEmail":"cbk098@coffeebeankorea.com"}},{"type":"Feature","geometry":{"type":"Point","coordinates":[127.000162,37.583115]},"properties":{"StoreName":"대학로대명거리점","StoreTel":"02-741-6671","StoreAddress":"서울시 종로구 대명길 25  51호","StoreOpendate":"월-일/공휴일 10:00~23:00","StoreShortDesc":"주차불가","StoreEmail":"cbk108@coffeebeankorea.com"}},{"type":"Feature","geometry":{"type":"Point","coordinates":[127.060203,37.596031]},"properties":{"StoreName":"외대앞점","StoreTel":"02-959-7750","StoreAddress":"서울시 동대문구 이문로 106 1~3층","StoreOpendate":"평일 07:30~24:00 | 토,일,공휴일 08:00~24:00","StoreShortDesc":"<와이파이이용가능> / 주차불가","StoreEmail":"cbk115@coffeebeankorea.com"}},{"type":"Feature","geometry":{"type":"Point","coordinates":[126.923471,37.553204]},"properties":{"StoreName":"홍대정문앞점","StoreTel":"02-3141-7948","StoreAddress":"서울시 마포구 홍익로7 358-15호","StoreOpendate":"09:00~24:00(평일,주말,공휴일 같음)","StoreShortDesc":"<와이파이, 콘센트 이용가능> / 주차불가능","StoreEmail":"cbk009@coffeebeankorea.com"}},{"type":"Feature","geometry":{"type":"Point","coordinates":[127.029543,37.586819]},"properties":{"StoreName":"고대안암역점","StoreTel":"02-953-6652","StoreAddress":"서울시 성북구 개운사길8 101-3 1층","StoreOpendate":"월-금 07:30~24:00 ㅣ 주말/공휴일 07:30~24:00","StoreShortDesc":"◈ 와이파이 이용가능 매장 ◈ 1시간 무료주차가능- 건물주차장으로 매장서 오른쪽 골목에 진입로가 있음(대형차량불가)","StoreEmail":"cbk030@coffeebeankorea.com"}},{"type":"Feature","geometry":{"type":"Point","coordinates":[126.972079,37.560174]},"properties":{"StoreName":"순화동라마다호텔점","StoreTel":"02-3789-3347","StoreAddress":"서울시 중구 칠패로 27 151호","StoreOpendate":"평일07:30~19:00 | 토요일08:00~16:00(일.공휴일동일)","StoreShortDesc":"라마다 호텔 측 1시간 할인권 배포","StoreEmail":"cbk132@coffeebeankorea.com"}},{"type":"Feature","geometry":{"type":"Point","coordinates":[126.941252,37.550864]},"properties":{"StoreName":"서강대학교점","StoreTel":"02-3211-7824","StoreAddress":"서울시 마포구 신수1동 서강대학지하캠퍼스1층 104호","StoreOpendate":"평일 08:00~22:00 ㅣ 주말 09:00~20:00","StoreShortDesc":"주차불가","StoreEmail":"cbk136@coffeebeankorea.com"}},{"type":"Feature","geometry":{"type":"Point","coordinates":[127.037942,37.562148]},"properties":{"StoreName":"왕십리민자역사점","StoreTel":"02-2200-6120","StoreAddress":"서울시 성동구 왕십리 광장로 17 왕십리민자역사ENTER6내1층","StoreOpendate":"월-일/공휴일 09:00~22:30","StoreShortDesc":"1시간 무료주차 (3만원 미만 구매시), 2시간 무료주차 (5만원 미만 구매시), 3시간 무료주차 (10만원 미만 구매시),(쇼핑몰내 영수증 합산 불가.이마트,극장과는 가능)","StoreEmail":"cbk135@coffeebeankorea.com"}},{"type":"Feature","geometry":{"type":"Point","coordinates":[126.943134,37.55834]},"properties":{"StoreName":"신촌역앞점","StoreTel":"02-312-5568","StoreAddress":"서울시 서대문구 신촌역로 20  27-27,16,65,61호","StoreOpendate":"월~일/공휴일 10:00~23:00","StoreShortDesc":"2시간 무료주차 (주차증 혹은 영수증 필히 지참)","StoreEmail":"cbk147@coffeebeankorea.com"}},{"type":"Feature","geometry":{"type":"Point","coordinates":[126.9754814388,37.5713519903]},"properties":{"StoreName":"세종문화회관옆점","StoreTel":"02-720-5561","StoreAddress":"서울 종로구 새문안로 9길 25 1층","StoreOpendate":"평일 07:30~23:00 ㅣ주말 10:00~22:00","StoreShortDesc":"주차불가","StoreEmail":"cbk151@coffeebeankorea.com"}},{"type":"Feature","geometry":{"type":"Point","coordinates":[126.937378,37.556284]},"properties":{"StoreName":"신촌점","StoreTel":"02-363-5572","StoreAddress":"서울시 서대문구 창천 18-26호 B1","StoreOpendate":"월-목 08:00 ~ 23:00 | 금/토요일 08:00 ~ 24:00 | 일/공휴일  08:00 ~ 23:00","StoreShortDesc":"건물 1층 유료주차장 30분 2,000원(기본) 10분 초과당 700원","StoreEmail":"cbk166@coffeebeankorea.com"}},{"type":"Feature","geometry":{"type":"Point","coordinates":[127.0711385172,37.5387890723]},"properties":{"StoreName":"건대스타시티점","StoreTel":"02-444-9861","StoreAddress":"서울시 광진구 자양동 227-342호 롯데백화점 옆 더클래식500건물 1층","StoreOpendate":"평일 08:00~23:00 / 토, 일, 공휴일 08:00~23:00","StoreShortDesc":"무인주차장 이용 30분 무료주차 1시간 무료주차 (1만원 이상 구매시), 2시간 무료주차 (3만원 이상 구매시), 3시간 무료주차 (5만원 이상 구매시) 이후 초과시 10분당 500원 부과","StoreEmail":"cbk168@coffeebeankorea.com"}},{"type":"Feature","geometry":{"type":"Point","coordinates":[126.935798,37.556074]},"properties":{"StoreName":"신촌현대백화점","StoreTel":"02-3145-1789","StoreAddress":"서울시 서대문구 신촌로83 현대백화점신촌점지하2층","StoreOpendate":"평일10:30~22:00 (토,일,공휴일 동일)","StoreShortDesc":"5만원이상 구매시, 1시간 무료주차 /<br/>10만원이상 구매시, 2시간 무료주차 /<br/>15만원이상 구매시, 3시간 무료주차 /<br/>10분당 천원","StoreEmail":"cbk189@coffeebeankorea.com"}},{"type":"Feature","geometry":{"type":"Point","coordinates":[126.973307,37.575327]},"properties":{"StoreName":"하나은행경복궁역점","StoreTel":"02-733-5108","StoreAddress":"서울시 종로구 사직로 130,1 현대적선빌딩1층","StoreOpendate":"평일 07:30~22:00 l 토 8:00~21:00 l 일,공휴일 10:00~21:00","StoreShortDesc":"유료주차장이용해야함(30분당 2,000원)","StoreEmail":"cbk191@coffeebeankorea.com"}},{"type":"Feature","geometry":{"type":"Point","coordinates":[127.076462,37.651175]},"properties":{"StoreName":"중계동은행사거리점","StoreTel":"02-931-3055","StoreAddress":"서울시 노원구 한글비석로 263 1층","StoreOpendate":"월-일/공휴일 08:00~24:00","StoreShortDesc":"주차불가","StoreEmail":"cbk192@coffeebeankorea.com"}},{"type":"Feature","geometry":{"type":"Point","coordinates":[126.973748,37.555465]},"properties":{"StoreName":"서울스퀘어점","StoreTel":"02-6456-8907","StoreAddress":"서울시 중구 한강대로 416 541호지하1층","StoreOpendate":"평일07:30~21:00|토요일 10:00 ~21:00 | 일요일 11:00 ~19:00 | 공휴일 휴무","StoreShortDesc":"1시간30분 무료주차(주말 및 공휴일 3시간 무료) 10분 초과당 1,000원","StoreEmail":"cbk193@coffeebeankorea.com"}},{"type":"Feature","geometry":{"type":"Point","coordinates":[126.8757718764,37.5281782237]},"properties":{"StoreName":"목동점","StoreTel":"02-2654-5981","StoreAddress":"서울시 양천구 목동동로 293 현대41타워1층","StoreOpendate":"월-금 07:30~24:00 ㅣ 주말/공휴일 08:00~24:00","StoreShortDesc":"7000원 구매 시 1시간 무료 주차","StoreEmail":"cbk028@coffeebeankorea.com"}},{"type":"Feature","geometry":{"type":"Point","coordinates":[126.9295057055,37.5227264084]},"properties":{"StoreName":"여의도34번지점","StoreTel":"02-783-2043","StoreAddress":"서울 영등포구 국제금융로 52 심팩빌딩 1층","StoreOpendate":"평일 07:00~22:30 ㅣ 토/공휴일 09:00~18:00 ㅣ 일요일 휴점","StoreShortDesc":"월~토요일 1시간 무료주차(건물 내 주차장) 일,공휴일 주차불가","StoreEmail":"cbk052@coffeebeankorea.com"}},{"type":"Feature","geometry":{"type":"Point","coordinates":[126.924573,37.522477]},"properties":{"StoreName":"여의도교보증권점","StoreTel":"02-783-6058","StoreAddress":"서울시 영등포구 의사당대로 97 26-4 교보증권빌딩1층","StoreOpendate":"월-금요일 07:00~23:00 | 토요일 08:00~22:00 | 일/공휴일 09:00~21:00","StoreShortDesc":"교보증권빌딩 주차장 이용 / 평일:30분 무료주차(10분 초과당 700원 부과), 주말/공휴일 : 2시간 무료, 2시간 이후 10분 당 700원","StoreEmail":"cbk070@coffeebeankorea.com"}},{"type":"Feature","geometry":{"type":"Point","coordinates":[126.854798,37.558436]},"properties":{"StoreName":"강서홈플러스점","StoreTel":"02-3664-7716","StoreAddress":"서울시 강서구  화곡로398 1층","StoreOpendate":"평일10:00~23:00(토.일.공휴일동일)","StoreShortDesc":"무료주차 가능 1시간 무료주차 (1만원 이상 구매시), 2시간 무료주차 (2만원 이상 구매시), 3시간 무료주차 (3만원 이상 구매시), 이후 초과시 10분당 1,000원 부과 3시간 : 3만원 이상, 초과시간 30분당 추가요금 1,000원)","StoreEmail":"cbk118@coffeebeankorea.com"}},{"type":"Feature","geometry":{"type":"Point","coordinates":[126.920109961,37.5287859719]},"properties":{"StoreName":"여의도중앙점","StoreTel":"02-3775-0548","StoreAddress":"서울시 영등포구 국회대로68길 17 해운빌딩 1층","StoreOpendate":"월-금요일 07:30~21:00 | 토-일/공휴일 10:00~19:00","StoreShortDesc":"주차권 도장 받을 시 1시간 무료주차 (이후 30분에 2,000원 추가요금 발생)","StoreEmail":"cbk139@coffeebeankorea.com"}},{"type":"Feature","geometry":{"type":"Point","coordinates":[126.900714,37.451977]},"properties":{"StoreName":"시흥홈플러스점","StoreTel":"02-803-9994","StoreAddress":"서울시 금천구 시흥대로 201 1층","StoreOpendate":"평일,주말/공휴일 10:00~23:00 ㅣ 둘째 주, 넷째 주 일요일 휴무","StoreShortDesc":"홈플러스 주차장 이용(무료)","StoreEmail":"cbk156@coffeebeankorea.com"}},{"type":"Feature","geometry":{"type":"Point","coordinates":[126.873231,37.530208]},"properties":{"StoreName":"목동홈플러스점","StoreTel":"02-2062-9913","StoreAddress":"서울시 양천구 목동서로 170 1층","StoreOpendate":"월-일/공휴일 10:00~22:30","StoreShortDesc":"30분 무료주차 1시간 무료주차 (1만원 이상 구매시), 2시간 무료주차 (2만원 이상 구매시) 이후 초과시 30분당 1,000원 부과","StoreEmail":"cbk163@coffeebeankorea.com"}},{"type":"Feature","geometry":{"type":"Point","coordinates":[126.924812,37.530538]},"properties":{"StoreName":"여의도순복음교회옆점","StoreTel":"02-780-7758","StoreAddress":"서울시 영등포구 여의서로 43 한서리버파크2층","StoreOpendate":"월~목 07:30 ~ 23:00ㅣ금 07:30 ~ 24:00 ㅣ 토 08:00 ~ 24:00 ㅣ일 08:00 ~ 23:00","StoreShortDesc":"주차불가","StoreEmail":"cbk164@coffeebeankorea.com"}},{"type":"Feature","geometry":{"type":"Point","coordinates":[126.894081,37.483916]},"properties":{"StoreName":"구로디지털단지점","StoreTel":"02-856-7151","StoreAddress":"서울시 구로구 디지털로 273 에이스트윈타워2차 101호","StoreOpendate":"월~금7:30~23시|주말 9:00~22시","StoreShortDesc":"음료구매시 1시간 무료제공<br/>평일 19시 이후, 토요일 14시 이후, 일요일 및 공휴일 영업시간동안 건물내 무료주차","StoreEmail":"cbk203@coffeebeankorea.com"}},{"type":"Feature","geometry":{"type":"Point","coordinates":[129.059487,35.155135]},"properties":{"StoreName":"부산서면태화점","StoreTel":"051-802-0617","StoreAddress":"부산광역시 부산진구 중앙대로 698-1호 1층","StoreOpendate":"월-금 08:00~00:00|토,일/공휴일 09:00~00:00","StoreShortDesc":"주차불가","StoreEmail":"cbk154@coffeebeankorea.com"}},{"type":"Feature","geometry":{"type":"Point","coordinates":[129.039179,35.114116]},"properties":{"StoreName":"KTX부산역점","StoreTel":"051-441-8972","StoreAddress":"부산광역시 동구 초량동 1187-1번지 부산역1층 맞이방","StoreOpendate":"평일 07:30~22:30 ㅣ 주말/공휴일 07:30~22:30 ","StoreShortDesc":"<와이파이이용가능> KTX부산역내 유료주차 ","StoreEmail":"cbk162@coffeebeankorea.com"}},{"type":"Feature","geometry":{"type":"Point","coordinates":[129.030527,35.099885]},"properties":{"StoreName":"부산광복동점","StoreTel":"051-243-9105","StoreAddress":"부산광역시 중구 광복로 35 2,3,4층","StoreOpendate":"월-목요일 09:00~23:00 | 금요일 09:00~23:30 | 토요일 09:00~23:30 | 일,공휴일 09:00~23:00","StoreShortDesc":"주차불가","StoreEmail":"cbk197@coffeebeankorea.com"}},{"type":"Feature","geometry":{"type":"Point","coordinates":[126.700997,37.4462]},"properties":{"StoreName":"인천구월동점","StoreTel":"032-421-3418","StoreAddress":"인천광역시 남동구 예술로 138 지상1,2층","StoreOpendate":"월~목 08:00 ~ 23:00 | 금,토,공휴일 08:00 ~ 24:00 | 일요일 08:00 ~ 23:00","StoreShortDesc":"1시간 무료주차 (건물내 주차장) 이후 30분 초과당 1,000원","StoreEmail":"cbk179@coffeebeankorea.com"}},{"type":"Feature","geometry":{"type":"Point","coordinates":[127.3767613714,36.3516856887]},"properties":{"StoreName":"대전둔산동점","StoreTel":"042-471-5520","StoreAddress":"대전광역시 서구 둔산동 1071","StoreOpendate":"월-목,일 10:00~24:00|금-토,공휴일 10:00~01:00","StoreShortDesc":"주차불가","StoreEmail":"cbk113@coffeebeankorea.com"}},{"type":"Feature","geometry":{"type":"Point","coordinates":[127.387685,36.346393]},"properties":{"StoreName":"대전탄방동점","StoreTel":"042-471-9805","StoreAddress":"대전시 서구 문정로76 1층","StoreOpendate":"월~일요일 9:00-00:00","StoreShortDesc":"1시간 무료주차 (지하 3층 기계식 주차장)<br/>주차 서비스 시간 평일 9:00~18:00 / 토요일 9:00~16:00 (일요일, 공휴일은 주차 안됨)","StoreEmail":"cbk171@coffeebeankorea.com"}},{"type":"Feature","geometry":{"type":"Point","coordinates":[127.362225347,36.3738382279]},"properties":{"StoreName":"대전카이스트점","StoreTel":"042-867-3751","StoreAddress":"대전광역시 유성구 구성동 373-1 한국과학기술원 국제센터 내 1층","StoreOpendate":"월-금요일 08:00~21:30 | 토-일/공휴일 09:00~21:30","StoreShortDesc":"무료주차 (캠퍼스 내 이용가능)","StoreEmail":"cbk209@coffeebeankorea.com"}},{"type":"Feature","geometry":{"type":"Point","coordinates":[126.7685851841,37.6615687418]},"properties":{"StoreName":"일산라페스타점","StoreTel":"031-907-2326","StoreAddress":"경기도 고양시 일산동구 장항동 764 라페스타C동","StoreOpendate":"월-금 10:00~22:00 | 토 10:00~23:00 | 일,공휴일 10:00~22:00","StoreShortDesc":"주차권 요청시 무료주차 1시간 가능, 중복하여 사용가능(최대3시간), 3시간 초과시 10분당 500원","StoreEmail":"cbk019@coffeebeankorea.com"}},{"type":"Feature","geometry":{"type":"Point","coordinates":[126.771957,37.655701]},"properties":{"StoreName":"일산웨스턴돔1호점","StoreTel":"031-931-5573","StoreAddress":"경기도 고양시 일산동구 정발산로 24 I동103~203호","StoreOpendate":"월-목 : 8:00-23:00ㅣ금-토 : 8:00-24:00ㅣ일요일, 공휴일 09:00-23:00","StoreShortDesc":"1시간 무료주차 (1만원 미만), 2시간 무료주차 (1만원 이상), 3시간 무료주차 (2만원 이상), 4시간 무료주차 (3만원 이상)","StoreEmail":"cbk094@coffeebeankorea.com"}},{"type":"Feature","geometry":{"type":"Point","coordinates":[126.7720388187,37.6558956887]},"properties":{"StoreName":"일산웨스턴돔2호점","StoreTel":"031-931-5571","StoreAddress":"경기도 고양시 일산동구 정발산로 24 웨스턴돔 A-303","StoreOpendate":"평일10:00~22:00 | 토-일/공휴일 10:00~22:00","StoreShortDesc":"1시간무료주차(1만원 이하), 2시간 무료주차(1만원 초과), 3시간무료주차 (2만원 초과), 4시간 무료주차 (3만원 초과)","StoreEmail":"cbk095@coffeebeankorea.com"}},{"type":"Feature","geometry":{"type":"Point","coordinates":[126.762025,37.504277]},"properties":{"StoreName":"중동현대백화점U-PLEX점","StoreTel":"032-623-1620","StoreAddress":"경기도 부천시 원미구 길주로 180 현대백화점 B1-120,121호","StoreOpendate":"평일10:30~22:00(토.일.공휴일동일)","StoreShortDesc":"백화점 주차가능(영수증필요)-대형차량불가 |  | 특이사항 : 기프티콘 및 커피빈멤버스 사용가능(단,멤버스 충전불가/이체충전은 가능)","StoreEmail":"cbk021@coffeebeankorea.com"}},{"type":"Feature","geometry":{"type":"Point","coordinates":[127.121541,37.384031]},"properties":{"StoreName":"분당서현점","StoreTel":"031-705-8926","StoreAddress":"경기도 성남시 분당구 분당로53번길 11 1층2,3호","StoreOpendate":"월-목/일요일 07:30~23:00 금/토요일 07:30~24:00","StoreShortDesc":"무료주차 1시간 가능-건물주차장(기계주차식)-대형차량불가/10분 초과당 500원 추가/ ","StoreEmail":"cbk026@coffeebeankorea.com"}},{"type":"Feature","geometry":{"type":"Point","coordinates":[127.121857,37.385095]},"properties":{"StoreName":"분당플라자점","StoreTel":"031-705-3188","StoreAddress":"경기도 성남시 분당구 황새울로 326 서현빌딩상가내2층","StoreOpendate":"평일07:30~23:00(토.일.공휴일동일)","StoreShortDesc":"◈ 와이파이 이용가능 매장 ◈ 평일/주말 동일 1시간 무료주차(추가 10분당 500원부과)","StoreEmail":"cbk035@coffeebeankorea.com"}},{"type":"Feature","geometry":{"type":"Point","coordinates":[127.12635,37.410983]},"properties":{"StoreName":"분당차병원점","StoreTel":"031-781-0471","StoreAddress":"경기도 성남시 분당구 야탑동354 분당차병원신관1층분당차1호","StoreOpendate":"평일07:30~23:00(토.일.공휴일동일)","StoreShortDesc":"주차불가","StoreEmail":"cbk065@coffeebeankorea.com"}},{"type":"Feature","geometry":{"type":"Point","coordinates":[127.112298,37.378102]},"properties":{"StoreName":"분당수내점","StoreTel":"031-713-9937","StoreAddress":"경기도 성남시 분당구 황새울로 214번길8 MSPlaza내1층","StoreOpendate":"평일08:00~24:00(토.일.공휴일동일)","StoreShortDesc":"<와이파이이용가능> 1시간 무료주차 30분 초과당 1,500원 부과","StoreEmail":"cbk119@coffeebeankorea.com"}},{"type":"Feature","geometry":{"type":"Point","coordinates":[127.074671,37.205806]},"properties":{"StoreName":"동탄라마다호텔점","StoreTel":"031-8003-8374","StoreAddress":"경기도 화성시 노작로 199 동탄라마다호텔107호~111호","StoreOpendate":"평일/주말 : 08:00 ~ 23:00","StoreShortDesc":"2시간 무료주차가능(건물지하 기계식 주차) 2시간 이후 10분당 1,000원 추가 금액 발생","StoreEmail":"cbk134@coffeebeankorea.com"}},{"type":"Feature","geometry":{"type":"Point","coordinates":[127.071001,37.752131]},"properties":{"StoreName":"의정부홈플러스점","StoreTel":"031-852-9940","StoreAddress":"경기도 의정부 청사로38 홈플러스의정부점내1층","StoreOpendate":"평일10:00~23:00(토.일.공휴일동일)","StoreShortDesc":"홈플러스내에 무료주차 이용가능 이용가능시간 오전 10시~ 오후11시40분","StoreEmail":"cbk146@coffeebeankorea.com"}},{"type":"Feature","geometry":{"type":"Point","coordinates":[127.124943,37.324402]},"properties":{"StoreName":"죽전단국대앞점","StoreTel":"031-897-2936","StoreAddress":"경기도 용인시 수지구 죽전로 168번길18 1층","StoreOpendate":"평일 08:00~23:00 ㅣ주말 08:00~23:00","StoreShortDesc":"무료주차 (건물 뒤쪽 지상주차장)","StoreEmail":"cbk149@coffeebeankorea.com"}},{"type":"Feature","geometry":{"type":"Point","coordinates":[127.131515,37.383773]},"properties":{"StoreName":"분당삼성시범단지앞점","StoreTel":"031-706-9103","StoreAddress":"경기도 성남시 분당구 새마을로 8 1층","StoreOpendate":"월-일/공휴일 08:00~24:00","StoreShortDesc":"주차가능, 발렛비(기본) 2시간에 1,000원","StoreEmail":"cbk195@coffeebeankorea.com"}},{"type":"Feature","geometry":{"type":"Point","coordinates":[127.177513,37.439971]},"properties":{"StoreName":"성남SK테크노파크점","StoreTel":"031-776-0170","StoreAddress":"경기도 성남시 중원구 사기막골로124 SK&테크노파크비즈센터110-1호","StoreOpendate":"월~금08:00~21:00 | 토요일 08:00~15:00 ㅣ일요일, 공휴일 휴점","StoreShortDesc":"1시간 무료주차 (구매금액 상관없음)","StoreEmail":"cbk201@coffeebeankorea.com"}},{"type":"Feature","geometry":{"type":"Point","coordinates":[126.7515004296,37.6679237282]},"properties":{"StoreName":"일산킨텍스현대백화점점","StoreTel":"031-822-3575","StoreAddress":"경기도 고양시 일산서구 대화동 2602 현대백화점킨텍스점 5F","StoreOpendate":"월~목 10:30~20:00|금~일,공휴일 10:30~20:30","StoreShortDesc":"30분 무료주차 (건물 지하 2~5층) 10분 초과당 500원 부과 / 1시간 이용가능(1만원 이상 구매시) / 2시간 이용가능(3만원 이상 구매시) / 3시간 이용가능(5만원 이상 구매시) / 5시간 이용가능(10만원 이상 구매시) *백화점 구매 영수증 이용가능","StoreEmail":"cbk208@coffeebeankorea.com"}},{"type":"Feature","geometry":{"type":"Point","coordinates":[128.680805,35.223458]},"properties":{"StoreName":"창원상남동점","StoreTel":"055-211-0737","StoreAddress":"경남 창원시 성산구 중앙대로 104 마이우스오피스텔 123호 207호","StoreOpendate":"월-일/공휴일 08:30~23:00","StoreShortDesc":"1시간 30분 무료주차(이후 10분당 300원 추가요금발생)","StoreEmail":"cbk204@coffeebeankorea.com"}},{"type":"Feature","geometry":{"type":"Point","coordinates":[127.488938,36.635156]},"properties":{"StoreName":"청주점","StoreTel":"043-221-2373","StoreAddress":"충북 청주시 상당구 상당로69번길20 2~4층","StoreOpendate":"평일10:00~23:00(토.일.공휴일동일)","StoreShortDesc":"무료주차불가능","StoreEmail":"cbk141@coffeebeankorea.com"}},{"type":"Feature","geometry":{"type":"Point","coordinates":[127.288605,36.610712]},"properties":{"StoreName":"고대세종캠퍼스점","StoreTel":"044-862-5144","StoreAddress":"세종특별자치시 세종로 2511 고대세종캠퍼스호연학사4관1층","StoreOpendate":"월 - 금 : 08:30~20:30 | 주말/공휴일 : 11:00 - 18:00","StoreShortDesc":"무료주차<br/>","StoreEmail":"cbk198@coffeebeankorea.com"}},{"type":"Feature","geometry":{"type":"Point","coordinates":[127.424831,36.644033]},"properties":{"StoreName":"청주지웰시티점","StoreTel":"043-238-3151","StoreAddress":"충북 청주시 흥덕구 대농로 17 지웰시티몰 1층 124-1,125,126호","StoreOpendate":"월~일 : 08:00~24:00","StoreShortDesc":"2시간 무료주차 (커피빈 당일 구매 영수증 지참시) 기본요금 : 30분 무료(추가 30분당 1,000원)","StoreEmail":"cbk210@coffeebeankorea.com"}},{"type":"Feature","geometry":{"type":"Point","coordinates":[126.9782578911,37.5684224972]},"properties":{"StoreName":"무교CBTL점","StoreTel":"02-3789-7750","StoreAddress":"서울 중구 세종대로 136 파이낸스빌딩","StoreOpendate":"월~금 10:00~22:00 | 주말,공휴일 12:00~21:00","StoreShortDesc":"2시간 무료주차 (커피빈 이용시) (CGV, SK허브 스카이 상가주차장에 한하여 제공함.)","StoreEmail":"cbk160@coffeebeankorea.com"}},{"type":"Feature","geometry":{"type":"Point","coordinates":[127.032087,37.496089]},"properties":{"StoreName":"국기원사거리점","StoreTel":"02-552-7106 ","StoreAddress":"서울시 강남구 테헤란로 8길 42 1층","StoreOpendate":"평일 08:00~21:30 ㅣ 주말/공휴일 11:00~20:00 ","StoreShortDesc":"1시간 무료주차 (커피빈 이용시) 10분 초과당 1,000원 (커피빈 미이용시 30분 2,000원 / 10분 초과당 1,000원)","StoreEmail":"cbk218@coffeebeankorea.com"}},{"type":"Feature","geometry":{"type":"Point","coordinates":[126.978878,37.56855]},"properties":{"StoreName":"무교점","StoreTel":"02-753-2374","StoreAddress":"서울시 중구 태평로1 84호 SFC빌딩B1,1-4","StoreOpendate":"평일 07:30~22:00 ㅣ주말 10:00~21:00","StoreShortDesc":"2시간 무료주차 (10분 초과당 1,000원)  24시 최대 30,000원 / 야간 주차요금 최대 5,000원  주말 및 공휴일 주차 최대 9,000원  (현금Or카드결제시만 적용 될수 있으며 선불웹 할인시간권은 적용  되지 않음)","StoreEmail":"cbk006@coffeebeankorea.com"}},{"type":"Feature","geometry":{"type":"Point","coordinates":[126.974046,37.554232]},"properties":{"StoreName":"남대문점","StoreTel":"02-777-4217","StoreAddress":"서울시 중구 후암로110 581호 서울시티타워1층","StoreOpendate":"월-금 07:30~21:00 I 토 09:00~16:00 I 일요일/공휴일 휴업","StoreShortDesc":"1만원이상 결제시 1시간 무료주차 가능 (건물주차장) / 발렛파킹불가.","StoreEmail":"cbk008@coffeebeankorea.com"}},{"type":"Feature","geometry":{"type":"Point","coordinates":[127.132233,37.51572]},"properties":{"StoreName":"올림픽플라자","StoreTel":"02-402-3571","StoreAddress":"서울시 송파구 양재대로 1222 올림픽선수A 1층212~3호","StoreOpendate":"월-금 08:00~22:30 ㅣ 토,일요일,공휴일 08:30~22:30","StoreShortDesc":"건물지하주차장 2시간무료주차(30분연장 가능 주차권발급X), 지상주차장 1시간무료주차(연장주차권 없음)","StoreEmail":"cbk041@coffeebeankorea.com"}},{"type":"Feature","geometry":{"type":"Point","coordinates":[127.003707,37.581372]},"properties":{"StoreName":"대학로마로니에점","StoreTel":"02-742-3318","StoreAddress":"서울시 종로구 대학로 12길 62 지하1층,지상1,2층","StoreOpendate":"월-일/공휴일 10:00~24:00","StoreShortDesc":"주차불가","StoreEmail":"cbk219@coffeebeankorea.com"}},{"type":"Feature","geometry":{"type":"Point","coordinates":[126.777219,37.501187]},"properties":{"StoreName":"중동위브더스테이트점","StoreTel":"032-613-5101","StoreAddress":"경기도 부천시 원미구 신흥로 190,1-115 더스테이트몰 W1-115","StoreOpendate":"평일 10:00~22:00 ㅣ 주말/공휴일 10:00~22:00 ","StoreShortDesc":"커피빈이용시 2시간 무료주차. 건물주차장 지하 1층만 가능.<br/>(2시간 이후 : 30분당 2000원 주차요금)","StoreEmail":"cbk220@coffeebeankorea.com"}},{"type":"Feature","geometry":{"type":"Point","coordinates":[126.9239915211,37.5210146876]},"properties":{"StoreName":"여의도역점","StoreTel":"02-784-5531","StoreAddress":"서울시 영등포구 의사당대로 108 아일렉스상가 1층 101호","StoreOpendate":"월-금 08:00~22:30 | 토-일/공휴일 09:00~21:00","StoreShortDesc":"주차가능 (5,000원 이상 구매 시 30분)","StoreEmail":"cbk221@coffeebeankorea.com"}},{"type":"Feature","geometry":{"type":"Point","coordinates":[127.116796,37.379175]},"properties":{"StoreName":"분당수내역점","StoreTel":"031-786-0374","StoreAddress":"경기도 성남시 분당구 황새울로258번길 29 6-4 BS타워 1층 일부","StoreOpendate":"월-금 08:00~22:30 ㅣ 주말 및 공휴일 08:30~22:30","StoreShortDesc":"발렛주차가능 1시간 3,000원 30분 초과당 1,000원 부과.","StoreEmail":"cbk222@coffeebeankorea.com"}},{"type":"Feature","geometry":{"type":"Point","coordinates":[126.9873351921,37.573008084]},"properties":{"StoreName":"인사점","StoreTel":"02-6262-8100","StoreAddress":"서울시 종로구 낙원동 272 오라카이스위츠 1층","StoreOpendate":"월-일/공휴일 07:30~00:00","StoreShortDesc":"1시간 무료주차","StoreEmail":"cbk226@coffeebeankorea.com"}},{"type":"Feature","geometry":{"type":"Point","coordinates":[127.045034,37.502902]},"properties":{"StoreName":"테헤란로비젼타워점","StoreTel":"02-558-7101","StoreAddress":"서울시 강남구 테헤란로 312 707-2번지1층","StoreOpendate":"평일 : 07:30~22:00 / 주말 : 11:00~20:00","StoreShortDesc":"1시간 무료주차 (커피빈 이용시)","StoreEmail":"cbk223@coffeebeankorea.com"}},{"type":"Feature","geometry":{"type":"Point","coordinates":[126.952171,37.479569]},"properties":{"StoreName":"서울대입구역점","StoreTel":"02-882-3101","StoreAddress":"서울시 관악구 관악로 161 층일부 2,3층","StoreOpendate":"08:00~24:00","StoreShortDesc":"<와이파이이용가능> / 주차불가","StoreEmail":"cbk224@coffeebeankorea.com"}},{"type":"Feature","geometry":{"type":"Point","coordinates":[127.0571155943,37.5129451363]},"properties":{"StoreName":"코엑스인터점","StoreTel":"02-569-3103","StoreAddress":"서울시 강남구 봉은사로 524 코엑스 인터컨티넨탈아케이드","StoreOpendate":"08:30~21:00","StoreShortDesc":"주차불가","StoreEmail":"cbk225@coffeebeankorea.com"}},{"type":"Feature","geometry":{"type":"Point","coordinates":[127.026879,37.638832]},"properties":{"StoreName":"수유역점","StoreTel":"02-906-5571","StoreAddress":"서울시 강북구 도봉로 352 효성네오인텔리안 101호","StoreOpendate":"월-금 08:00~23:00 | 토,일/공휴일 09:00~23:00","StoreShortDesc":"1시간 무료주차 (5,000원 이상 구매시)","StoreEmail":"cbk228@coffeebeankorea.com"}},{"type":"Feature","geometry":{"type":"Point","coordinates":[127.027414,37.524385]},"properties":{"StoreName":"뉴압구정점","StoreTel":"02-545-3181","StoreAddress":"서울시 강남구 논현로 167길 9 낙산프라자 1층","StoreOpendate":"월-토 07:30~24:00/일요알,공휴일 08:00~24:00","StoreShortDesc":"현재 2시간 3,000원(기본), 30분 초과당 2,000원 추가","StoreEmail":"cbk233@coffeebeankorea.com"}},{"type":"Feature","geometry":{"type":"Point","coordinates":[126.889351,37.509114]},"properties":{"StoreName":"디큐브시티점","StoreTel":"02-2210-9484","StoreAddress":"서울시 구로구 경인로 662 디큐브시티 4층","StoreOpendate":"월-금/주말/공휴일 11:00~23:00","StoreShortDesc":"음료 구매시 1시간 무료이용 가능 (3만원 미만 구매시 1시간 / 3-5만원 2시간)","StoreEmail":"cbk235@coffeebeankorea.com"}},{"type":"Feature","geometry":{"type":"Point","coordinates":[126.981773,37.585105]},"properties":{"StoreName":"삼청동점","StoreTel":"02-730-5177","StoreAddress":"서울시 종로구 삼청로 109","StoreOpendate":"평일 08:00~23:00 ㅣ주말 09:00~23:00","StoreShortDesc":"발렛주차가능 2시간 2,000원(기본) 10분 초과당 1,000원 부과","StoreEmail":"cbk237@coffeebeankorea.com"}},{"type":"Feature","geometry":{"type":"Point","coordinates":[126.991044,37.561786]},"properties":{"StoreName":"충무로극동빌딩점","StoreTel":"02-2273-3181","StoreAddress":"서울시 중구 퇴계로 173 극동빌딩1층","StoreOpendate":"월-금 07:30~19:00 | 토-일/공휴일은 휴무입니다.","StoreShortDesc":"30분 무료주차","StoreEmail":"cbk238@coffeebeankorea.com"}},{"type":"Feature","geometry":{"type":"Point","coordinates":[126.927285,37.524849]},"properties":{"StoreName":"현대자동차여의도점","StoreTel":"02-783-3391","StoreAddress":"서울시 영등포구 국제금융로 20 1층","StoreOpendate":"월-금요일 07:00~22:00 | 토-일/공휴일 09:00~21:00","StoreShortDesc":"주차불가","StoreEmail":"cbk239@coffeebeankorea.com"}},{"type":"Feature","geometry":{"type":"Point","coordinates":[127.055174,37.506792]},"properties":{"StoreName":"포스코사거리점","StoreTel":"02-508-7522 ","StoreAddress":"서울시 강남구 테헤란로 439","StoreOpendate":"월-금 07:30~22:00 | 토-일/공휴일 09:00~22:00","StoreShortDesc":"평일 (월~금) 저녁 8시까지 주차 가능(30분 무료 주차 가능, 30분 초과당 1500원 부과)<br/> 토, 일 , 공휴일: 주차 불가","StoreEmail":"cbk241@coffeebeankorea.com"}},{"type":"Feature","geometry":{"type":"Point","coordinates":[127.047899348,37.505687136]},"properties":{"StoreName":"선릉로93길점","StoreTel":"02-552-3177","StoreAddress":"서울시 강남구 선릉로93길 6(역삼동) 1층","StoreOpendate":"-월~금요일 08:00~24:00/-토요일 09:00~24:00/-일요일(공휴일) 09:00~23:00","StoreShortDesc":"기계식 주차장<br/>주차료 : 최초 30분 무료 / 이후 30분당 1천원에 주차료<br/>(입고가능 시간 07:00~20:00 / 출고가능 시간07:00~22:30<br/>이용 불가시간:22:30~익일 07:00 / 일요일 공휴일 전일 사용 불가)","StoreEmail":"cbk242@coffeebeankorea.com"}},{"type":"Feature","geometry":{"type":"Point","coordinates":[126.923498,37.49205]},"properties":{"StoreName":"보라매공원동문앞점","StoreTel":"02-835-5088 ","StoreAddress":"서울시 동작구 보라매로5길 35 101,102호","StoreOpendate":"월-금 07:30~00:00 | 토-일/공휴일 09:00~00:00","StoreShortDesc":"1시간 무료주차 (커피빈 이용시)","StoreEmail":"cbk243@coffeebeankorea.com"}},{"type":"Feature","geometry":{"type":"Point","coordinates":[127.027272,37.500072]},"properties":{"StoreName":"강남역먹자골목점","StoreTel":"02-552-6311","StoreAddress":"서울시 강남구 테헤란로1길 29 1층일부 및 2.3층","StoreOpendate":"08:00~24:00","StoreShortDesc":"주차불가","StoreEmail":"cbk244@coffeebeankorea.com"}},{"type":"Feature","geometry":{"type":"Point","coordinates":[127.054054,37.510666]},"properties":{"StoreName":"삼성로점","StoreTel":"02-552-9311 ","StoreAddress":"서울시 강남구 삼성로 551 1층,2층","StoreOpendate":"월-금요일 07:30~24:00 | 토-일/공휴일 08:30~0:00","StoreShortDesc":"발렛주차가능 1시간 30분 2,000원(기본) 30분 초과당 1,000원 부과","StoreEmail":"cbk245@coffeebeankorea.com"}},{"type":"Feature","geometry":{"type":"Point","coordinates":[127.02834,37.492675]},"properties":{"StoreName":"서초우성아파트앞점","StoreTel":"02-522-7158 ","StoreAddress":"서울시 서초구 사임당로 171(서초동) EWR빌딩 2층","StoreOpendate":"월-금 08:30~22:00 | 토-일/공휴일 09:00~22:00","StoreShortDesc":"30분 무료주차 (커피빈 이용시) 10분 초과당 1,000원 부과(영수증 지참)","StoreEmail":"cbk246@coffeebeankorea.com"}},{"type":"Feature","geometry":{"type":"Point","coordinates":[127.050574,37.503366]},"properties":{"StoreName":"선릉로86길점","StoreTel":"02-2051-8875","StoreAddress":"서울시 강남구 선릉로86길 11","StoreOpendate":"월~금요일 08:00~24:00 ㅣ 토요일 09:00~24:00 ㅣ 일요일(공휴일) 09:00~23:00","StoreShortDesc":"건물내 주차타워 이용 1시간 3,000원(기본) (커피빈영수증 지참시 1,000원할인)<br/>[콘센트사용가능]","StoreEmail":"cbk247@coffeebeankorea.com"}},{"type":"Feature","geometry":{"type":"Point","coordinates":[126.984577,37.576299]},"properties":{"StoreName":"안국역점","StoreTel":"02-722-3356 ","StoreAddress":"서울시 종로구 율곡로 47 1,2층","StoreOpendate":"평일 07:30~23:00 ㅣ주말 08:00~23:00","StoreShortDesc":"주차불가","StoreEmail":"cbk248@coffeebeankorea.com"}},{"type":"Feature","geometry":{"type":"Point","coordinates":[127.024867,37.50232]},"properties":{"StoreName":"뉴교보타워옆점","StoreTel":"02-591-5177","StoreAddress":"서울시 서초구 강남대로 449-3 알고코리아빌딩 1,2층","StoreOpendate":"월~목요일 07:30~00:00 | 금~토요일 07:30~01:00 | 일요일 07:30~00:00","StoreShortDesc":"주차불가","StoreEmail":"cbk250@coffeebeankorea.com"}},{"type":"Feature","geometry":{"type":"Point","coordinates":[127.157377,36.818578]},"properties":{"StoreName":"천안신부동점","StoreTel":"041-569-3371","StoreAddress":"충남 천안시 동남구 만남로 48(신부동)","StoreOpendate":"월-금 08:30~23:30 | 토,일,공휴일 09:30~24:00","StoreShortDesc":"무료주차 기계식 주차장 (2,000cc 이하 차량만 이용가능)","StoreEmail":"cbk251@coffeebeankorea.com"}},{"type":"Feature","geometry":{"type":"Point","coordinates":[126.92206,37.553308]},"properties":{"StoreName":"홍대주차장길점","StoreTel":"02-337-8511 ","StoreAddress":"서울 마포구 어울마당로 94","StoreOpendate":"월-목 11:00~24:00|금요일 11:00~02:00|토요일 10:00~02:00|일/공휴일 10:00~24:00","StoreShortDesc":"<콘센트 이용가능> / 주차불가","StoreEmail":"cbk252@coffeebeankorea.com"}},{"type":"Feature","geometry":{"type":"Point","coordinates":[126.925285,37.524937]},"properties":{"StoreName":"IFC MALL2호점","StoreTel":"02-6137-5054  ","StoreAddress":"서울시 영등포구 국제금융로10 IFC B2층","StoreOpendate":"월-금요일 07:30-23:00 | 토요일 08:00-23:00 | 일요일 08:00-23:00","StoreShortDesc":"(30분 무료주차 / 1만원 이상 구매시 1시간 무료 / 3만원 이상 구매시 2시간 무료 / 5만원 이상 구매시 3시간 무료주차 )","StoreEmail":"cbk254@coffeebeankorea.com"}},{"type":"Feature","geometry":{"type":"Point","coordinates":[126.892585,37.579519]},"properties":{"StoreName":"상암SBS미디어센터점","StoreTel":"02-2039-9027 ","StoreAddress":"서울시 마포구 상암산로 82 SBS프리즘타워 1층","StoreOpendate":"월-금 07:30~21:30|토-일/공휴일 09:00~20:00|","StoreShortDesc":"주차불가","StoreEmail":"cbk255@coffeebeankorea.com"}},{"type":"Feature","geometry":{"type":"Point","coordinates":[126.886497,37.478671]},"properties":{"StoreName":"마리오아울렛점","StoreTel":"02-857-5501  ","StoreAddress":"서울시 금천구 디지털로9길 23 마리오-2관 패션타워3층","StoreOpendate":"10:30~21:30","StoreShortDesc":"2시간 무료주차 (유인정산소 이용시)","StoreEmail":"cbk256@coffeebeankorea.com"}},{"type":"Feature","geometry":{"type":"Point","coordinates":[127.047217,37.504352]},"properties":{"StoreName":"뉴선릉역점","StoreTel":"02-553-7391","StoreAddress":"서울시 강남구 테헤란로327 빅토리아빌딩2층","StoreOpendate":"월-금요일 7:30~22:00 | 토요일 11:00 ~ 20:00ㅣ일요일,공휴일 휴점","StoreShortDesc":"<콘센트 이용가능> 30분 무료주차 (커피빈 이용시) (10분 초과당 1,500원 부과)","StoreEmail":"cbk257@coffeebeankorea.com"}},{"type":"Feature","geometry":{"type":"Point","coordinates":[126.683604,37.405907]},"properties":{"StoreName":"인천스퀘어원1호점","StoreTel":"032-456-4475","StoreAddress":"인천광역시 연수구 청능대로210 인천서부스퀘어원MALL 1,2층","StoreOpendate":"월~일 : 09:00 ~ 23:00","StoreShortDesc":"무료주차 (지하 홈플러스, 스퀘어원 주차장)","StoreEmail":"cbk258@coffeebeankorea.com"}},{"type":"Feature","geometry":{"type":"Point","coordinates":[127.052166,37.505842]},"properties":{"StoreName":"삼성금융플라자점","StoreTel":"02-554-7591","StoreAddress":"서울 강남구 테헤란로 419 삼성금융플라자1층","StoreOpendate":"평일 07:30~23:00ㅣ토요일  09:00~22:00 ㅣ일요일  11:00~20:00","StoreShortDesc":"유료주차 1시간 4,000원","StoreEmail":"cbk260@coffeebeankorea.com"}},{"type":"Feature","geometry":{"type":"Point","coordinates":[126.815236,37.156633]},"properties":{"StoreName":"현대자동차남양연구소점","StoreTel":"031-357-8103 ","StoreAddress":"경기도 화성시 장덕동 현대연구소로150 현대자동차남양연구소 설계1동1F","StoreOpendate":"평일 : 06:30 ~ 19:00 / 주말(공휴일) : 휴무","StoreShortDesc":"<콘센트 이용가능> 연구소내 개인차량 주차 불가능","StoreEmail":"cbk261@coffeebeankorea.com"}},{"type":"Feature","geometry":{"type":"Point","coordinates":[126.986055,37.561579]},"properties":{"StoreName":"명동나인트리호텔점","StoreTel":"02-771-9935 ","StoreAddress":"서울시 중구 명동10길 51 나인트리호텔 본관2층","StoreOpendate":"평일 08:00~00:00 ㅣ주말 08:00~00:00","StoreShortDesc":"주차 불가능","StoreEmail":"cbk263@coffeebeankorea.com"}},{"type":"Feature","geometry":{"type":"Point","coordinates":[126.994888,37.534798]},"properties":{"StoreName":"이태원점","StoreTel":"02-794-3361","StoreAddress":"서울시 용산구 이태원로 189 ","StoreOpendate":"월~목,일 : 08:00 ~ 24:00 / 금,토   : 08:00 - 01:00","StoreShortDesc":"주차불가","StoreEmail":"cbk264@coffeebeankorea.com"}},{"type":"Feature","geometry":{"type":"Point","coordinates":[127.022289,37.523498]},"properties":{"StoreName":"뉴가로수길점","StoreTel":"02-544-7105","StoreAddress":"서울시 강남구 압구정로12길 6","StoreOpendate":"월~금 07:30~24:00 / 토~일 08:00~24:00","StoreShortDesc":"주차불가","StoreEmail":"cbk274@coffeebeankorea.com"}},{"type":"Feature","geometry":{"type":"Point","coordinates":[127.032321,37.487126]},"properties":{"StoreName":"서초뱅뱅사거리점","StoreTel":"02-523-8841 ","StoreAddress":"서울시 서초구 강남대로 267 2,3층","StoreOpendate":"월~금 07:30~24:00 | 토,일/공휴일 08:00~23:00","StoreShortDesc":"평일 10,000원이상 결제 시 1시간 무료, 이후 10분당 2000원의 추가 요금 (공휴일,주말 무료주차가능)","StoreEmail":"cbk266@coffeebeankorea.com"}},{"type":"Feature","geometry":{"type":"Point","coordinates":[127.133212,37.535193]},"properties":{"StoreName":"현대자동차성내점","StoreTel":"02-485-3361 ","StoreAddress":"서울시 강동구 천호대로 1096 1,2F","StoreOpendate":"월-금요일 07:30~00:00 | 토,일,공휴일 08:00~00:00","StoreShortDesc":"주차불가","StoreEmail":"cbk267@coffeebeankorea.com"}},{"type":"Feature","geometry":{"type":"Point","coordinates":[126.930245,37.482536]},"properties":{"StoreName":"신림점","StoreTel":"02-877-1194  ","StoreAddress":"서울시 관악구 신림로 318 청암두산위브센티움1층","StoreOpendate":"월-일/공휴일 08:00~23:00","StoreShortDesc":"<와이파이, 콘센트 이용가능> 1시간 30분 무료주차","StoreEmail":"cbk268@coffeebeankorea.com"}},{"type":"Feature","geometry":{"type":"Point","coordinates":[127.032658,37.264912]},"properties":{"StoreName":"수원인계점","StoreTel":"031-233-5631","StoreAddress":"경기도 수원시 팔달구 권광로 195 학산빌딩1층 ","StoreOpendate":"월-목요일 08:30~23:00 | 금-토요일 08:30~24:00 | 일/공휴일 08:30~23:00","StoreShortDesc":"1시간 무료주차(30분 초과당 1,500원 부과)","StoreEmail":"cbk269@coffeebeankorea.com"}},{"type":"Feature","geometry":{"type":"Point","coordinates":[127.1135313808,37.3972828529]},"properties":{"StoreName":"판교아브뉴프랑점","StoreTel":"031-8016-8131","StoreAddress":"경기도 성남시 분당구 동판교로177번길 25","StoreOpendate":"월-일요일 07:30~24:00","StoreShortDesc":"<콘센트 이용가능> 지하주차장 이용(07:00~24:00) 1시간 무료주차 (1만원 이상~3만원미만) 2시간 무료주차 (3만원 이상~5만원미만) 3시간 무료주차 (5만원 이상 구매시)","StoreEmail":"cbk270@coffeebeankorea.com"}},{"type":"Feature","geometry":{"type":"Point","coordinates":[126.7545264717,37.664553197]},"properties":{"StoreName":"일산원마운트점","StoreTel":"031-961-6520","StoreAddress":"경기도 고양시 일산서구 한류월드로 300 원마운트스포츠몰 1층","StoreOpendate":"월-목 : 9:30-22:30 ㅣ 금요일, 주말 및 공휴일 09:30-23:00","StoreShortDesc":"[일반주차] 30분 무료주차(기본) 10분 초과당 300원부과 / [워터파크 이용시] 4시간 무료주차(기본) 6시간 내 500원 8시간 내 1,000원 / [스노우파크 이용시]3시간 무료주차 5시간내 500원","StoreEmail":"cbk271@coffeebeankorea.com"}},{"type":"Feature","geometry":{"type":"Point","coordinates":[129.3389018091,35.5413467705]},"properties":{"StoreName":"울산업스퀘어점","StoreTel":"052-990-5501 ","StoreAddress":"울산광역시 남구 화합로 185 업스퀘어 1층","StoreOpendate":"월-금/토,일,공휴일 09:00~23:00","StoreShortDesc":"업스퀘어쇼핑몰 주차장 이용가능/ 1시간 무료주차 (1만원 이상 구매시) /2시간 무료주차 (3만원 이상 구매시) /3시간 무료주차 (5만원 이상 구매시) /4시간 무료주차 (7만원 이상 구매시)","StoreEmail":"cbk272@coffeebeankorea.com"}},{"type":"Feature","geometry":{"type":"Point","coordinates":[126.9789,37.567246]},"properties":{"StoreName":"서울시청뒤남강빌딩점","StoreTel":"02-755-3301","StoreAddress":"서울시 중구 무교로15 남강빌딩1층","StoreOpendate":"평일 07:00~22:30 ㅣ주말 08:00~21:00","StoreShortDesc":"주차불가","StoreEmail":"cbk274@coffeebeankorea.com"}},{"type":"Feature","geometry":{"type":"Point","coordinates":[126.819721,37.163064]},"properties":{"StoreName":"현대자동차남양연구소C1식당점","StoreTel":"031-357-8172","StoreAddress":"경기 화성시 장덕동 현대연구소로150 현대자동차남양연구소 C1구역식당1F","StoreOpendate":"월-목요일 7:00~19:00 | 금요일 7:00~18:00 | 토-일/공휴일 휴점","StoreShortDesc":"연구소내 개인차량 주차 불가능","StoreEmail":"cbk273@coffeebeankorea.com"}},{"type":"Feature","geometry":{"type":"Point","coordinates":[127.1155184445,37.5203411392]},"properties":{"StoreName":"올림픽공원점","StoreTel":"02-415-9962","StoreAddress":"서울시 송파구 올림픽로 424 평화의광장","StoreOpendate":"평일 08:00~23:00ㅣ주말,공휴일 08:00~23:00","StoreShortDesc":"공원 내 유료주차장","StoreEmail":"cbk277@coffeebeankorea.com"}},{"type":"Feature","geometry":{"type":"Point","coordinates":[126.986186,37.564294]},"properties":{"StoreName":"명동성당앞점","StoreTel":"02-777-3363","StoreAddress":"서울시 중구 명동길 73 1,2층","StoreOpendate":"월-일/공휴일 07:00~23:00","StoreShortDesc":"<콘센트 이용가능> / 주차불가","StoreEmail":"cbk276@coffeebeankorea.com"}},{"type":"Feature","geometry":{"type":"Point","coordinates":[129.335854,35.539587]},"properties":{"StoreName":"울산현대백화점점","StoreTel":"052-228-0560","StoreAddress":"울산광역시 남구 삼산로 261 현대백화점5층","StoreOpendate":"월-일/공휴일 10:30~21:00","StoreShortDesc":"<콘센트 이용가능> 백화점 주차장이용 30분 무료주차 1시간 무료주차 (3만원 이상 구매시) 2시간 무료주차 (5만원 이상 구매시) 3시간 무료주차 (10만원 이상 구매시) 30분 초과당 1,000원 부과","StoreEmail":"cbk278@coffeebeankorea.com"}},{"type":"Feature","geometry":{"type":"Point","coordinates":[128.594826,35.869681]},"properties":{"StoreName":"대구중앙로점","StoreTel":"053-428-3370","StoreAddress":"대구광역시 중구 중앙대로 412-18","StoreOpendate":"월-일/공휴일 08:30~22:30","StoreShortDesc":"<콘센트 이용가능> / 주차불가","StoreEmail":"cbk279@coffeebeankorea.com"}},{"type":"Feature","geometry":{"type":"Point","coordinates":[126.9245872922,37.5225143378]},"properties":{"StoreName":"여의도교보증권카페점","StoreTel":"02-785-8845","StoreAddress":"서울시 영등포구 의사당대로 97 교보증권빌딩 2층","StoreOpendate":"월-금요일 07:30~22:00 | 토-일/공휴일 10:00~20:00","StoreShortDesc":"교보증권빌딩 주차장이용<br/>평일 : 30분 무료주차(10분 초과 당 700원 부과)<br/>주말/공휴일 : 2시간 무료(10분 초과 당 700원 부과)","StoreEmail":"cbk280@coffeebeankorea.com"}},{"type":"Feature","geometry":{"type":"Point","coordinates":[127.0916233517,37.5983343514]},"properties":{"StoreName":"상봉엔터식스점","StoreTel":"02-437-8891","StoreAddress":"서울시 중랑구 망우로 353 프레미어스엠코 엔터식스 B동 2층","StoreOpendate":"월-일/공휴일 10:00~22:00","StoreShortDesc":"<콘센트 이용가능> 무료주차","StoreEmail":"cbk281@coffeebeankorea.com"}},{"type":"Feature","geometry":{"type":"Point","coordinates":[126.921955,37.529815]},"properties":{"StoreName":"여의도렉싱턴호텔옆점","StoreTel":"02-782-3358","StoreAddress":"서울시 영등포구 국회대로74길19 동우국제빌딩1층","StoreOpendate":"월-금 07:30~22:00 | 토요일 12:00~21:00 ㅣ일요일 10:00-21:00 ","StoreShortDesc":"1시간 무료주차 10분 초과당 1,000원 부과","StoreEmail":"cbk282@coffeebeankorea.com"}},{"type":"Feature","geometry":{"type":"Point","coordinates":[126.8703542151,37.5260820776]},"properties":{"StoreName":"목동트라팰리스점","StoreTel":"02-2643-7725","StoreAddress":"서울시 양천구 오목로 299 트라팰리스 이스턴에비뉴 1층","StoreOpendate":"월-목,일요일 08:00~23:00 | 금,토요일 08:00~23:30","StoreShortDesc":"3시간 무료주차 (상가 지하5층 주차장)","StoreEmail":"cbk283@coffeebeankorea.com"}},{"type":"Feature","geometry":{"type":"Point","coordinates":[127.026999164,37.5318084396]},"properties":{"StoreName":"압구정현대아파트점","StoreTel":"02-518-3350","StoreAddress":"서울시 강남구 압구정로29길65 지하1층","StoreOpendate":"월-일/공휴일 07:30~23:00","StoreShortDesc":"<콘센트 이용가능> * 건물 1층에 주차 공간 있습니다. (2대 가능) * 매장 옆 공영주차장 안내해 드리고 있습니다.( 토,일. 공휴일 무료) 2시간 이내 10분당 400원 /2시간 이후 10분 800원","StoreEmail":"cbk286@coffeebeankorea.com"}},{"type":"Feature","geometry":{"type":"Point","coordinates":[127.14172,37.600714]},"properties":{"StoreName":"현대자동차구리점","StoreTel":"031-553-1137","StoreAddress":"경기도 구리시 검배로3 현대자동차1층","StoreOpendate":"월-목 : 09:00~22:30 / 금,토 : 09:00~23:00 / 일,공휴일 : 09:00~22:00","StoreShortDesc":"<와이파이, 콘센트 이용가능> 건물 옆 공영주차장 이용가능 30분 600원","StoreEmail":"cbk284@coffeebeankorea.com"}},{"type":"Feature","geometry":{"type":"Point","coordinates":[127.034893,37.500613]},"properties":{"StoreName":"역삼역4번출구점","StoreTel":"02-508-1137","StoreAddress":"서울시 강남구 테헤란로143 고운빌딩1층","StoreOpendate":"월-금  07:30~23:00 | 토-일/공휴일 8:00~23:00","StoreShortDesc":"주차불가","StoreEmail":"cbk287@coffeebeankorea.com"}},{"type":"Feature","geometry":{"type":"Point","coordinates":[126.977166,37.563621]},"properties":{"StoreName":"시청역7번출구점","StoreTel":"02-754-8852","StoreAddress":"서울시 중구 세종대로84 2층","StoreOpendate":"월-금 07:30~22:30 | 토-일/공휴일 10:00~22:00","StoreShortDesc":"주차불가","StoreEmail":"cbk288@coffeebeankorea.com"}},{"type":"Feature","geometry":{"type":"Point","coordinates":[126.7256878,37.4934845]},"properties":{"StoreName":"부평문화의거리점","StoreTel":"032-507-9901","StoreAddress":"인천광역시 부평구 시장로29 1,2층","StoreOpendate":"월-목 09:00~23:00 | 금요일 09:00~24:00 | 토요일 10:00~24:00 | 일/공휴일 10:00~23:00","StoreShortDesc":"주차불가","StoreEmail":"cbk289@coffeebeankorea.com"}},{"type":"Feature","geometry":{"type":"Point","coordinates":[127.0432485968,37.4818879291]},"properties":{"StoreName":"영동2교사거리점","StoreTel":"02-573-5681","StoreAddress":"서울시 강남구 논현로136 오션스퀘어빌딩 1층, 2층 ","StoreOpendate":"월-금요일 07:30~22:30 | 토-일/공휴일 08:00~23:00","StoreShortDesc":"30분 무료주차 (만차 시 이용불가)","StoreEmail":"cbk290@coffeebeankorea.com"}},{"type":"Feature","geometry":{"type":"Point","coordinates":[127.0260565648,37.5020611194]},"properties":{"StoreName":"강남대로센터점","StoreTel":"02-565-3345","StoreAddress":"서울시 강남구 강남대로442 흥국화재빌딩 2층 ","StoreOpendate":"월~금요일 07:30~00:00 | 토~일요일 08:00~00:00","StoreShortDesc":"주차불가","StoreEmail":"cbk285@coffeebeankorea.com"}},{"type":"Feature","geometry":{"type":"Point","coordinates":[126.8965392788,37.4849283909]},"properties":{"StoreName":"구로G-ValleyMall","StoreTel":"02-6344-3966","StoreAddress":"서울시 구로구 디지털로300 지밸리비즈플라자 2층","StoreOpendate":"평일 08:00~22:00 ㅣ주말 10:00~22:00","StoreShortDesc":"1만원 구매 시 1시간 무료","StoreEmail":"cbk293@coffeebeankorea.com"}},{"type":"Feature","geometry":{"type":"Point","coordinates":[126.992829,37.489503]},"properties":{"StoreName":"내방역7번출구유중아트점","StoreTel":"02-592-8861","StoreAddress":"서울시 서초구 방배로178 유중아트센터1층","StoreOpendate":"월-금 07:30~22:30 ㅣ 주말/공휴일 8:00~23:00","StoreShortDesc":"<와이파이, 콘센트 이용가능> [유료주차] 10분 1,000원 2시간 2,000원 ( 매장에서 영수증에 도장날인 후 이용가능)","StoreEmail":"cbk294@coffeebeankorea.com"}},{"type":"Feature","geometry":{"type":"Point","coordinates":[127.1066899683,37.341613046]},"properties":{"StoreName":"오리역애플플라자점","StoreTel":"031-715-5638","StoreAddress":"경기도 성남시 분당구 탄천상로151번길20 월드쇼핑 B동 1층","StoreOpendate":"월-일/공휴일 08:00~23:00","StoreShortDesc":"<콘센트 이용가능><br/><br/>* 입차 후 1시간 무료<br/>* 매장 이용시 추가 1시간 무료<br/>* 무료시간 초과 차량 10분당 500원 ","StoreEmail":"cbk295@coffeebeankorea.com"}},{"type":"Feature","geometry":{"type":"Point","coordinates":[127.0087747747,37.5688854829]},"properties":{"StoreName":"동대문두타점","StoreTel":"02-3398-4901","StoreAddress":"서울시 중구 장충단로 275 두산타워 2층","StoreOpendate":"평일 10:30 ~ 04:30(am) ㅣ토요일 10:30 ~ 04:30(am) ㅣ일/공휴일 10:30~23:30 (평일이 공휴일인 경우, 평일 영업시간과 동일)","StoreShortDesc":" 매장 이용 고객 영수증 지참 시, 두타 건물 내 주차증 발급(2시간 주차 가능)","StoreEmail":"cbk291@coffeebeankorea.com"}},{"type":"Feature","geometry":{"type":"Point","coordinates":[127.0594430149,37.5096318963]},"properties":{"StoreName":"도심공항점","StoreTel":"02-551-6456 ","StoreAddress":"서울시 강남구 테헤란로87길22 도심공항터미널 지하1층","StoreOpendate":"월-금요일 08:00~22:00 토-일/공휴일 09:00~22:00","StoreShortDesc":"<와이파이, 콘센트 이용가능> 코엑스몰 유료 지하주차장 이용 가능 1시간 무료주차 (코엑스몰 내 5만원 이상 구매시)","StoreEmail":"cbk296@coffeebeankorea.com"}},{"type":"Feature","geometry":{"type":"Point","coordinates":[126.9037159932,37.5172337072]},"properties":{"StoreName":"타임스퀘어점","StoreTel":"02-2635-8830","StoreAddress":"서울시 영등포구 영중로15 타임스퀘어 1층","StoreOpendate":"월-토 07:30~23:00 | 일/공휴일 07:30~23:00","StoreShortDesc":"주차불가","StoreEmail":"cbk297@coffeebeankorea.com"}},{"type":"Feature","geometry":{"type":"Point","coordinates":[126.9037159932,37.5172337072]},"properties":{"StoreName":"타임스퀘어B1점","StoreTel":"02-2631-3341","StoreAddress":"서울시 영등포구 영중로15 타임스퀘어 지하1층","StoreOpendate":"월-일/공휴일 10:30~22:00","StoreShortDesc":"주차불가","StoreEmail":"cbk298@coffeebeankorea.com"}},{"type":"Feature","geometry":{"type":"Point","coordinates":[126.985316183109,37.5705751633074]},"properties":{"StoreName":"종로YMCA점","StoreTel":"02-735-3380","StoreAddress":"서울시 종로구 종로69 YMCA1층","StoreOpendate":"월-목 07:30~23:00|금요일 07:30~24:00|토요일 09:00~24:00|일/공휴일09:00~23:00","StoreShortDesc":"<br/>※그 외 매장 사항※<br/><에너지팜 대관 시설안내>  (한팀당 10명 이상/ 1인 1주문이상)<br/><br/>1. 전시공간<br/>에너지팜 전체 공간을 이용한 사진전, 그림.미술전 등<br/><br/>2. 무대공연<br/>규모 : 5m x 5m<br/>이용시간 -2시간(행사 성격에 따라 조정가능 / 음악공연 가능)<br/><br/>3. 세미나실 <br/>이용시간-2시간(회의, 세미나, 교육, 강연 등 30명 내외 그룹행사 가능)","StoreEmail":"cbk299@coffeebeankorea.com"}},{"type":"Feature","geometry":{"type":"Point","coordinates":[127.034681,37.507804]},"properties":{"StoreName":"차병원사거리점","StoreTel":"02-542-8813","StoreAddress":"서울시 강남구 봉은사로207 KJ타워1층","StoreOpendate":"월-금요일 07:30~22:30 | 토-일/공휴일 08:00~22:00","StoreShortDesc":"<콘센트 이용가능> 건물 내 유료주차타워 이용","StoreEmail":"cbk300@coffeebeankorea.com"}},{"type":"Feature","geometry":{"type":"Point","coordinates":[127.0400280239,37.5570759699]},"properties":{"StoreName":"엔터식스한양대점","StoreTel":"02-6454-6216","StoreAddress":"서울시 성동구 왕십리로241 서울숲더샵 판매시설201동 지하2층","StoreOpendate":"월-금 10:00~22:00 ㅣ 주말/공휴일 10:00~22:00","StoreShortDesc":"엔터식스 쇼핑몰 내 주차장 이용가능<br/>평일 9:50-22:30 무료주차/주말공휴일 입차 후 30분 무료주차(추가10분당 500원추가)/구매영수증 1만원이상 1시간무료,3만원이상 2시간무료, 5만원이상 3시간무료, 10만원이상 5시간무료(당일구매영수증에한함. 영수증합산가능)","StoreEmail":"cbk301@coffeebeankorea.com"}},{"type":"Feature","geometry":{"type":"Point","coordinates":[127.0608089556,37.5091915107]},"properties":{"StoreName":"CBTL(커피빈)파르나스몰점","StoreTel":"02-538-2008 ","StoreAddress":"서울시 강남구 테헤란로521 파르나스몰 지하1층","StoreOpendate":"월-금요일 07:30~22:00 | 토-일/공휴일 09:00~22:00","StoreShortDesc":"","StoreEmail":"cbk302@coffeebeankorea.com"}},{"type":"Feature","geometry":{"type":"Point","coordinates":[126.9740365469,37.5727716496]},"properties":{"StoreName":"광화문역1번출구점","StoreTel":"02-723-3360","StoreAddress":"서울시 종로구 새문안로5가길 7 1층 일부","StoreOpendate":"평일 07:30~23:00 ㅣ주말 09:00~22:00","StoreShortDesc":"<콘센트 이용가능> / 주차불가","StoreEmail":"cbk303@coffeebeankorea.com"}},{"type":"Feature","geometry":{"type":"Point","coordinates":[126.8135266524,37.1593989989]},"properties":{"StoreName":"남양연구소PT동점","StoreTel":"031-355-1346","StoreAddress":"경기도 화성시 장덕동 현대연구소로150 현대자동차남양연구소 PT동 1층","StoreOpendate":"평일 07:00~19:00 ㅣ 주말/공휴일 휴무","StoreShortDesc":"주차 : 연구소내 개인 차량 주차 불가능<br/><br/> ","StoreEmail":"cbk304@coffeebeankorea.com"}},{"type":"Feature","geometry":{"type":"Point","coordinates":[126.785627905,37.599411389]},"properties":{"StoreName":"현대프리미엄아울렛 김포점","StoreTel":"031-8048-2618","StoreAddress":"경기 김포시 고촌읍 전호리 654번지 현대프리미엄아울렛김포3층 618호","StoreOpendate":"평일 10:00~21:00 | 주말/공휴일 10:00~21:00","StoreShortDesc":"<콘센트 이용가능> 현대프리미엄아울렛 주차장 무료이용가능","StoreEmail":"cbk305@coffeebeankorea.com"}},{"type":"Feature","geometry":{"type":"Point","coordinates":[126.929684,37.521769]},"properties":{"StoreName":"여의도신영증권별관점","StoreTel":"02-782-1125","StoreAddress":"서울시 영등포구 국제금융로8길6 신영증권별관빌딩2층","StoreOpendate":"월-금 07:00~23:00 | 토-일/공휴일 09:00~22:00","StoreShortDesc":"주차불가","StoreEmail":"cbk306@coffeebeankorea.com"}},{"type":"Feature","geometry":{"type":"Point","coordinates":[126.998481,37.53469]},"properties":{"StoreName":"이태원제일기획옆점","StoreTel":"02-792-3560","StoreAddress":"서울시 용산구 이태원로220(한남동) 1층","StoreOpendate":"월-목요일 08:00~23:00 | 금요일 08:00~01:00 | 토요일 09:00~25:00 | 일요일 09:00~23:00","StoreShortDesc":"<콘센트 이용가능> / 주차불가","StoreEmail":"cbk307@coffeebeankorea.com"}},{"type":"Feature","geometry":{"type":"Point","coordinates":[127.025723,37.498513]},"properties":{"StoreName":"강남역GT타워옆점","StoreTel":"02-592-0053","StoreAddress":"서울시 서초구 서초대로73길12 세계빌딩1층 ","StoreOpendate":"월-목 07:30~23:00|금-토 07:30~24:00|일/공휴일 08:00~23:00","StoreShortDesc":"발렛주차 가능 (음료구매시 2시간 2,000원)","StoreEmail":"cbk308@coffeebeankorea.com"}},{"type":"Feature","geometry":{"type":"Point","coordinates":[127.047337,37.30424]},"properties":{"StoreName":"광교아브뉴프랑점","StoreTel":"031-216-9308","StoreAddress":"경기도 수원시 영통구 센트럴타운로85 광교아브뉴프랑1층A122,123호 ","StoreOpendate":"월-일/공휴일 08:30~23:00","StoreShortDesc":"<콘센트 이용가능> 지하주차장 이용가능 무료주차: 30분 유료주차:  1시간 무료주차 (1만원 이상 구매시) 2시간 무료주차 (3만원 이상 구매시) 3시간 무료주차 (5만원 이상 구매시)","StoreEmail":"cbk309@coffeebeankorea.com"}},{"type":"Feature","geometry":{"type":"Point","coordinates":[127.103001,37.544184]},"properties":{"StoreName":"광장동대한제지점","StoreTel":"02-458-8166","StoreAddress":"서울시 광진구 아차산로563(광장동) 대한제지빌딩 로비층","StoreOpendate":"월-일/공휴일 07:00~23:00","StoreShortDesc":"1시간 무료주차 (커피빈 이용시) 15분 초과당 1,000원 (22시50분 이 후 주차불가)","StoreEmail":"cbk310@coffeebeankorea.com"}},{"type":"Feature","geometry":{"type":"Point","coordinates":[127.029926,37.494207]},"properties":{"StoreName":"강남오토스퀘어점","StoreTel":"02-554-6132","StoreAddress":"서울시 강남구 강남대로350","StoreOpendate":"평일 08:00~23:00 | 주말,공휴일 09:00~22:00","StoreShortDesc":"<와이파이, 콘센트 이용가능> / 주차불가","StoreEmail":"cbk311@coffeebeankorea.com"}},{"type":"Feature","geometry":{"type":"Point","coordinates":[127.081678,37.511377]},"properties":{"StoreName":"신천역점","StoreTel":"02-417-8851","StoreAddress":"서울시 송파구 올림픽로100 효창타워1층","StoreOpendate":"월~금요일 07:30~00:00 | 토~일요일 08:00~00:00","StoreShortDesc":"1시간 무료주차 (커피빈 이용시)","StoreEmail":"cbk312@coffeebeankorea.com"}},{"type":"Feature","geometry":{"type":"Point","coordinates":[129.379677,36.061505]},"properties":{"StoreName":"포항영일대점","StoreTel":"054-241-3372","StoreAddress":"경상북도 포항시 북구 삼호로265번길1 NB-City복합시설1층104호","StoreOpendate":"월~목 09:00 ~ 22:00 ㅣ 금~토 09:00 ~ 23:00 ㅣ 일,공휴일 09:00 ~ 22:00","StoreShortDesc":"3시간 무료주차 (영수증 지참시)","StoreEmail":"cbk313@coffeebeankorea.com"}},{"type":"Feature","geometry":{"type":"Point","coordinates":[126.961595,37.478074]},"properties":{"StoreName":"낙성대역점","StoreTel":"02-875-3364","StoreAddress":"서울시 관악구 남부순환로1909 1,2층","StoreOpendate":"월-금 8:00-24:00,토-일 9:00-24:00","StoreShortDesc":"<와이파이이용가능> / 주차불가","StoreEmail":"cbk316@coffeebeankorea.com"}},{"type":"Feature","geometry":{"type":"Point","coordinates":[128.1456869,35.1780528]},"properties":{"StoreName":"진주LH본사점","StoreTel":"055-763-3520","StoreAddress":"경상남도 진주시 충의로 19 LH진주사옥 홍보관1층","StoreOpendate":"월-금 08:00~21:00 | 토요일 08:00~21:00 | 일/공휴일 휴무","StoreShortDesc":"LH 사옥 내 주차장 이용가능","StoreEmail":"cbk317@coffeebeankorea.com"}},{"type":"Feature","geometry":{"type":"Point","coordinates":[126.439616,37.484816]},"properties":{"StoreName":"공항탑승동130gate앞점","StoreTel":"032-743-7213 ","StoreAddress":"인천광역시 중구 공항로272 인천국제공항탑승동3층 FB-C5-57","StoreOpendate":"월-일,공휴일 06:30~22:00","StoreShortDesc":"주차불가","StoreEmail":"cbk314@coffeebeankorea.com"}},{"type":"Feature","geometry":{"type":"Point","coordinates":[126.439616,37.484816]},"properties":{"StoreName":"공항탑승동105gate앞점","StoreTel":"032-743-7223","StoreAddress":"인천광역시 중구 공항로272 인천국제공항탑승동3층 FB-C5-68","StoreOpendate":"월-일,공휴일 06:30~22:00","StoreShortDesc":"주차불가","StoreEmail":"cbk315@coffeebeankorea.com"}},{"type":"Feature","geometry":{"type":"Point","coordinates":[126.9647427471,37.5297736038]},"properties":{"StoreName":"용산아이파크몰점","StoreTel":"02-2012-0631","StoreAddress":"서울시 용산구 한강대로23길55 현대아이파크몰용산 F06층","StoreOpendate":"월-목요일 09:30~22:00 | 금요일 09:30~22:30 | 토요일 09:00~22:30 | 일/공휴일 09:00~22:00","StoreShortDesc":"<콘센트 이용가능><br/>용산아이파크몰 주차이용 30분 무료주차 가능 (10분 초과당 1,000원 / 1시간 6,000원) ㅣ  2시간 무료주차 (3만원 이상 구매시) ㅣ 3시간 무료주차 (5만원 이상 구매시) ㅣ 4시간 무료주차 (10만원 이상 구매시) ㅣ 5시간 무료주차 (20만원 이상 구매시) (아이파크몰 주차요금제에 따라 타 브랜드 영수증 합산 가능)","StoreEmail":"cbk318@coffeebeankorea.com"}},{"type":"Feature","geometry":{"type":"Point","coordinates":[129.293712,35.836482]},"properties":{"StoreName":"경주미탐시티점","StoreTel":"054-777-5982","StoreAddress":"경상북도 경주시 엑스포로80(천군동)1층","StoreOpendate":"월 ~ 금: 10:00 ~ 22:00 ㅣ 토 - 일 공휴일 : 10:00 ~ 22:00","StoreShortDesc":"무료주차","StoreEmail":"cbk319@coffeebeankorea.com"}},{"type":"Feature","geometry":{"type":"Point","coordinates":[127.101536,37.50701]},"properties":{"StoreName":"석촌호수점","StoreTel":"02-415-1235","StoreAddress":"서울시 송파구 석촌호수로 222 제이타워 1층","StoreOpendate":"월-목 08:00 ~ 23:00 | 금,토요일 08:00 ~ 24:00 | 일 08:00 ~ 23:00","StoreShortDesc":"1시간 무료주차 (1만원 이상 구매시)","StoreEmail":"cbk320@coffeebeankorea.com"}},{"type":"Feature","geometry":{"type":"Point","coordinates":[126.876233,37.524127]},"properties":{"StoreName":"오목교역사거리점","StoreTel":"02-2653-8577 ","StoreAddress":"서울시 양천구 오목로 350 목동썬텍씨티빌딩 1층,2층","StoreOpendate":"월-금 07:30~23:00 | 토-일,공휴일 08:00~23:00","StoreShortDesc":"<와이파이이용가능> 1시간 무료주차 (주차공간 협소)","StoreEmail":"cbk321@coffeebeankorea.com"}},{"type":"Feature","geometry":{"type":"Point","coordinates":[126.983223,37.56684]},"properties":{"StoreName":"을지로입구역점","StoreTel":"02-752-3348","StoreAddress":"서울시 중구 남대문로10길 6 1,2층 ","StoreOpendate":"월-금 : 07:30-23:00 ㅣ 토요일 09:00~22:00 ㅣ 일요일 및 공휴일 10:00~22:00","StoreShortDesc":"<와이파이, 콘센트 이용가능>","StoreEmail":"cbk322@coffeebeankorea.com"}},{"type":"Feature","geometry":{"type":"Point","coordinates":[127.483494,37.250125]},"properties":{"StoreName":"이천하이닉스점","StoreTel":"031-632-8846","StoreAddress":"경기 이천시 부발읍 하이닉스반도체","StoreOpendate":"월-금 07:00~23:00 | 토 09:00~20:00 | 일/공휴일 휴무","StoreShortDesc":"주차불가","StoreEmail":"cbk323@coffeebeankorea.com"}},{"type":"Feature","geometry":{"type":"Point","coordinates":[126.985132,37.562464]},"properties":{"StoreName":"명동M플라자점","StoreTel":"02-752-0888","StoreAddress":"서울시 중구 명동8길 27(명동2가)","StoreOpendate":"월~일, 공휴일: 09:00 ~ 22:00","StoreShortDesc":"주차불가","StoreEmail":"cbk324@coffeebenakorea.com"}},{"type":"Feature","geometry":{"type":"Point","coordinates":[126.6559192,37.3801634]},"properties":{"StoreName":"송도홈플러스점","StoreTel":"032-822-5905","StoreAddress":"인천광역시 연수구 송도국제대로 165(송도동) 홈플러스송도점1층","StoreOpendate":"월-일/공휴일 10:00~22:30 | 둘째 주, 넷째 주 일요일 11:00~21:00","StoreShortDesc":"최초 30분 무료주차 / 이후 10분당 1천원요금부과<br/>1만원이상~2만원 미만 : 2시간무료<br/>2만원이상~3만원 미만 : 3시간 무료<br/>3만원이상 : 5시간 무료","StoreEmail":"cbk325@coffeebenakorea.com"}},{"type":"Feature","geometry":{"type":"Point","coordinates":[127.128258,37.524348]},"properties":{"StoreName":"올림픽공원북2문앞점","StoreTel":"02-471-2372","StoreAddress":"서울시 강동구 강동대로193 1층","StoreOpendate":"월~목: 07:30-23:00 | 금: 07:30-24:00 | 토: 08:00-24:00 | 일: 08:00-23:00","StoreShortDesc":"<와이파이, 콘센트 이용가능> 평일 주차불가 주말 및 공휴일 무료주차 (시간제한없음)","StoreEmail":"cbk326@coffeebeankorea.com"}},{"type":"Feature","geometry":{"type":"Point","coordinates":[127.0295454105,37.5850495541]},"properties":{"StoreName":"고대참살이길점","StoreTel":"02-923-7735","StoreAddress":"서울시 성북구 인촌로24길 25 (안암동5가) 2층,3층","StoreOpendate":"평일 08 : 00-24:00 | 주말, 공휴일 : 09:00-24:00","StoreShortDesc":"주차불가 / 콘센트 이용가능","StoreEmail":"cbk327@coffeebeankorea.com"}},{"type":"Feature","geometry":{"type":"Point","coordinates":[127.0131829497,37.4812247584]},"properties":{"StoreName":"예술의전당앞점","StoreTel":"02-583-8856","StoreAddress":"서울특별시 서초구 반포대로4(서초동) 2층, 3층","StoreOpendate":"월-목 08:00-23:00 | 금,토요일 08:00-24:00 | 일/공휴일 08:00-23:00","StoreShortDesc":"<콘센트 이용가능> / 주차불가","StoreEmail":"cbk328@coffeebeankorea.com"}},{"type":"Feature","geometry":{"type":"Point","coordinates":[127.062887,37.507056]},"properties":{"StoreName":"삼성역글라스타워뒷점","StoreTel":"02-552-3363","StoreAddress":"서울시 강남구 영동대로85길 9 (대치동) 서전빌딩1층","StoreOpendate":"월-수 07:30~23:00 ㅣ 목-금 07:30 ~ 24:00 ㅣ 주말 ,공휴일 08:00~23:00","StoreShortDesc":"주차 : 평일만 영수증 지참 시 50% 할인 (주말, 기계식 주차장 off)","StoreEmail":"cbk329@coffeebeankorea.com"}},{"type":"Feature","geometry":{"type":"Point","coordinates":[126.95352462143,37.3904948692]},"properties":{"StoreName":"범계역로데오점","StoreTel":"031-476-9082","StoreAddress":"경기도 안양시 동안구 평촌대로 223번길 41(호계동 1045-9) 2층","StoreOpendate":"월~목 09:00-24:00/금,토요일 09:00-25:00/일요일,공휴일 10:00-24:00(공휴일 전날 영업시간 25시까지)","StoreShortDesc":"주차불가","StoreEmail":"cbk332@coffeebeankorea.com"}},{"type":"Feature","geometry":{"type":"Point","coordinates":[127.058290971152,37.5058951024001]},"properties":{"StoreName":"포스코옆삼성로86길점","StoreTel":"02-569-7501","StoreAddress":"서울특별시 강남구 삼성로86길 11 거봉빌딩 1층","StoreOpendate":"평일 07:30 ~ 23:00 ㅣ 주말,공휴일 09:00 ~ 22:00","StoreShortDesc":"매장 앞 공영주차장 이용<br/><br/>  ","StoreEmail":"cbk330@coffeebeankorea.com"}},{"type":"Feature","geometry":{"type":"Point","coordinates":[126.887936022633,37.5824700686653]},"properties":{"StoreName":"상암한국지역정보개발원점","StoreTel":"02-376-9162","StoreAddress":"서울시 마포구 성암로301 KLID한국지역정보개발원 1층","StoreOpendate":"월-금 07:30~22:00ㅣ토/일/공휴일 09:00~21:00","StoreShortDesc":"주차불가","StoreEmail":"cbk333@coffeebeankorea.com"}},{"type":"Feature","geometry":{"type":"Point","coordinates":[127.1083323607,37.3944981674]},"properties":{"StoreName":"판교알파돔시티점","StoreTel":"031-8017-8556","StoreAddress":"경기도 성남시 분당구 판교역로145(백현동) 판교알파돔 C2-3블럭 1층","StoreOpendate":"평일 07:30 - 23:00 / 주말 및 공휴일 08:00 - 23:00","StoreShortDesc":"<콘센트 이용가능> 1시간:1만원 이상 ~ 3만원미만 / 2시간:3만원이상~5만원미만 / 3시간:5만원이상1","StoreEmail":"cbk335@coffeebeankorea.com"}},{"type":"Feature","geometry":{"type":"Point","coordinates":[126.882774031717,37.5011588838246]},"properties":{"StoreName":"구로AK플라자점","StoreTel":" 02-839-5906","StoreAddress":"서울특별시 구로구 구로중앙로 152 (구로동) AK플라자구로점1층","StoreOpendate":"월-목 08:00~23:00ㅣ금/토 08:00~24:00ㅣ 일/공휴일 08:00~23:00","StoreShortDesc":"<콘센트사용가능><br/><주차이용안내> 5만원 이상 구매 시: 1시간 무료 / 10만원 이상 구매 시: 2시간 무료 / 15만원 이상 구매 시: 3시간 무료","StoreEmail":"cbk336@coffeebeankorea.com"}},{"type":"Feature","geometry":{"type":"Point","coordinates":[127.067631444505,37.4992587229563]},"properties":{"StoreName":"대치동나무병원점","StoreTel":"02-562-9605","StoreAddress":"서울특별시 강남구 영동대로 225 나무병원1층 (대치동994-5)","StoreOpendate":"평일 08:00~22:00 ㅣ 주말/공휴일 09:00~21:00","StoreShortDesc":"<콘센트사용가능>","StoreEmail":"cbk334@coffeebeankorea.com"}},{"type":"Feature","geometry":{"type":"Point","coordinates":[127.1056022078,37.3707100084]},"properties":{"StoreName":"분당정자점","StoreTel":"031-786-1906","StoreAddress":"경기도 성남시 분당구 정자일로 227(정자동) 백궁지엔느주차전용빌딩 1층","StoreOpendate":"평일 08:00~23:00 ㅣ 주말/공휴일 08:00~23:00","StoreShortDesc":"","StoreEmail":"cbk337@coffeebeankorea.com"}},{"type":"Feature","geometry":{"type":"Point","coordinates":[127.025591466622,37.5045335804035]},"properties":{"StoreName":"신논현역점","StoreTel":"02-569-9061","StoreAddress":"서울특별시 강남구 봉은사로108 글라스톤빌딩1층","StoreOpendate":"평일 07:30~24:00 ㅣ 주말/공휴일 07:30~24:00","StoreShortDesc":"주차가능(주차비 기본2,000원/발렛, 1시간 무료)","StoreEmail":"cbk338@coffeebeankorea.com"}},{"type":"Feature","geometry":{"type":"Point","coordinates":[126.8512506837,37.5548554949]},"properties":{"StoreName":"강서그랜드아이파크점","StoreTel":"02-2699-7462","StoreAddress":"서울시 강서구 화곡6동 1095번지 1층","StoreOpendate":"평일 08:00~23:00 ㅣ 주말/공휴일 08:00~23:00","StoreShortDesc":"1시간 주차 이용가능(건물 지하 주차장)","StoreEmail":"cbk339@coffeebeankorea.com"}},{"type":"Feature","geometry":{"type":"Point","coordinates":[126.8929141443,37.5784526551]},"properties":{"StoreName":"상암DDMC점","StoreTel":"02-375-0994","StoreAddress":"서울시 마포구 상암동 1610번지 DDMC 지하 1층","StoreOpendate":"평일 08:00~21:00 | 토,일요일 11:00~21:00","StoreShortDesc":"30분 무료(10분에 500원 추가)","StoreEmail":"cbk340@coffeebeankorea.com"}},{"type":"Feature","geometry":{"type":"Point","coordinates":[126.9432490802,37.563094983]},"properties":{"StoreName":"연대동문회관점","StoreTel":"02-362-8301","StoreAddress":"서울시 서대문구 대신동 50-5 1층,2층(B동)","StoreOpendate":"평일 08:00~23:00 ㅣ 주말/공휴일 08:00~22:00","StoreShortDesc":"","StoreEmail":"cbk341@coffeebeankorea.com"}},{"type":"Feature","geometry":{"type":"Point","coordinates":[126.9669645028,37.3966479641]},"properties":{"StoreName":"평촌점","StoreTel":"031-426-9065","StoreAddress":"경기도 안양시 동안구 시민대로327번길 6, W 에이스타워 1층","StoreOpendate":"평일 08:00~23:00 ㅣ 주말/공휴일 09:00~22:00","StoreShortDesc":"주차 가능 <구매금액 상관없음 & 구매 시 2시간 무료> (이후 10분당 500원)","StoreEmail":"cbk342@coffeebeankorea.com"}},{"type":"Feature","geometry":{"type":"Point","coordinates":[126.7766300932,37.653093412]},"properties":{"StoreName":"마두역점","StoreTel":"031-932-7018","StoreAddress":"경기도 고양시 일산동구 중앙로 1193 마두법조빌딩 1층","StoreOpendate":"평일 7:30-22:00  ㅣ 주말/공휴일 10:00-22:00","StoreShortDesc":"주차불가 매장입니다.","StoreEmail":"cbk343@coffeebeankorea.com"}},{"type":"Feature","geometry":{"type":"Point","coordinates":[127.0027238204,37.2674445894]},"properties":{"StoreName":"수원역점","StoreTel":"031-248-9593","StoreAddress":"경기도 수원시 팔달구 매산로 11,  2층","StoreOpendate":"월-금 08:00~23:00 ㅣ 주말/공휴일 08:00~23:00","StoreShortDesc":"주차 2시간무료 (금액관련 없음)","StoreEmail":"cbk344@coffeebeankorea.com"}},{"type":"Feature","geometry":{"type":"Point","coordinates":[126.7834919157,37.4844689723]},"properties":{"StoreName":"부천역점","StoreTel":"032-668-7890","StoreAddress":"경기도 부천시 부천로4 2층","StoreOpendate":"월-목 09:00~23:00 ㅣ 금 09:00~24:00ㅣ 토 10:00~24:00 ㅣ 일/공휴일 10:00~23:00","StoreShortDesc":"","StoreEmail":"cbk345@coffeebeankorea.com"}},{"type":"Feature","geometry":{"type":"Point","coordinates":[127.0704989682,37.5709478606]},"properties":{"StoreName":"장안점","StoreTel":"02-2249-9826","StoreAddress":"서울시 동대문구 장안동 372-1, 1층 일부 및 2층 전체","StoreOpendate":"평일/주말/공휴일 08:30~24:00","StoreShortDesc":"","StoreEmail":"cbk346@coffeebeankorea.com"}},{"type":"Feature","geometry":{"type":"Point","coordinates":[127.0091728486,37.4919759673]},"properties":{"StoreName":"서초역1번출구점","StoreTel":"02-598-7741","StoreAddress":"서울시 서초구 서초대로 250 스타갤러리 브릿지 1층 101호","StoreOpendate":"평일 07:30~23:00 ㅣ 토요일 08:00~23:00 ㅣ 주말/공휴일 09:00~23:00","StoreShortDesc":"주차가능(유료주차 10분당 1,000원)","StoreEmail":"cbk349@coffeebeankorea.com"}},{"type":"Feature","geometry":{"type":"Point","coordinates":[127.0575718963,37.2462164627]},"properties":{"StoreName":"수원망포역점","StoreTel":"031-273-8751","StoreAddress":"경기도 수원시 영통구 영통로 214번길 8 1층","StoreOpendate":"평일 08:00~24:00 ㅣ 주말/공휴일 08:00~24:00","StoreShortDesc":"매장 앞 주차공간 및 건물 지하 무료주차 가능","StoreEmail":"cbk350@coffeebeankorea.com"}},{"type":"Feature","geometry":{"type":"Point","coordinates":[127.0590713663,37.5030439339]},"properties":{"StoreName":"대치사거리점","StoreTel":"02-569-9751","StoreAddress":"서울시 강남구 삼성로 352 창진빌딩 1층 및 2층","StoreOpendate":"평일 07:30~24:00 ㅣ 주말/공휴일 08:00~24:00","StoreShortDesc":"1시간무료 (금액제한 없음/영수증지참, 매장 뒷편 기계식주차) 이 후 15분당 1,000원 (1시간 4천원)","StoreEmail":"cbk351@coffeebeankorea.com"}},{"type":"Feature","geometry":{"type":"Point","coordinates":[127.0401392782,37.46900819]},"properties":{"StoreName":"매헌역점","StoreTel":"02-2058-0921","StoreAddress":"서울시 서초구 동산로 1  1층","StoreOpendate":"평일 07:30~24:00 ㅣ 주말/공휴일 08:00~23:00","StoreShortDesc":"","StoreEmail":"cbk352@coffeebeankorea.com"}},{"type":"Feature","geometry":{"type":"Point","coordinates":[126.8890435931,37.5196463349]},"properties":{"StoreName":"문래동점","StoreTel":"02-2069-3157","StoreAddress":"서울시 영등포구 문래동6가 5번지 1층","StoreOpendate":"평일 07:30~23:00 ㅣ 주말/공휴일 08:00~22:30","StoreShortDesc":"건물내 주차 2시간 무료이용","StoreEmail":"cbk353@coffeebeankorea.com"}},{"type":"Feature","geometry":{"type":"Point","coordinates":[129.1615586611,35.1598877814]},"properties":{"StoreName":"해운대점","StoreTel":"051-746-8214","StoreAddress":"부산시 해운대구 해운대 해변로277 다옴빌딩1층","StoreOpendate":"월-목 09:00~23:00 ㅣ 금 09:00~24:00 ㅣ 토 08:00~24:00 ㅣ 일,공휴일 08:00~23:00 ","StoreShortDesc":"주차불가능","StoreEmail":"cbk354@coffeebeankorea.com"}},{"type":"Feature","geometry":{"type":"Point","coordinates":[127.0398849909,37.5010229051]},"properties":{"StoreName":"역삼동태광타워점","StoreTel":"02-569-9867","StoreAddress":"서울시 강남구 역삼동 718-20  태광타워 1층","StoreOpendate":"평일 07:30~23:00 ㅣ 주말/공휴일 09:00~22:00","StoreShortDesc":"","StoreEmail":"cbk355@coffeebeankorea.com"}},{"type":"Feature","geometry":{"type":"Point","coordinates":[127.0918092493,37.3359670584]},"properties":{"StoreName":"수지동천점","StoreTel":"031-896-9044","StoreAddress":"경기 용인시 수지구 손곡로 95 송란빌딩 1층","StoreOpendate":"평일 08:00~23:00 ㅣ 주말/공휴일 08:00~23:00","StoreShortDesc":"무료주차 2시간 가능","StoreEmail":"cbk356@coffeebeankorea.com"}},{"type":"Feature","geometry":{"type":"Point","coordinates":[126.736760962,37.7295687815]},"properties":{"StoreName":"파주운정홈플러스점","StoreTel":"031-949-1408","StoreAddress":"경기도 파주시 청암로 17번길 17 1층","StoreOpendate":"평일 10:00~23:00 ㅣ 주말/공휴일 10:00~23:00","StoreShortDesc":"","StoreEmail":"cbk357@coffeebeankorea.com"}},{"type":"Feature","geometry":{"type":"Point","coordinates":[127.0194497345,37.5109607184]},"properties":{"StoreName":"잠원논현역점","StoreTel":"02-541-7404","StoreAddress":"서울시 서초구 신반포로47길 5 건물전체 1~3층","StoreOpendate":" 월-금 08:00~24:00 ㅣ 토요일 09:00~24:00 ㅣ 일/공휴일 10:00~24:00","StoreShortDesc":"","StoreEmail":"cbk358@coffeebeankorea.com"}},{"type":"Feature","geometry":{"type":"Point","coordinates":[127.1235648143,37.5403063842]},"properties":{"StoreName":"천호역점","StoreTel":"02-488-5912","StoreAddress":"서울시 강동구 올림픽로 659 쌍용플래티넘리버 1층","StoreOpendate":"평일 07:30~23:00 ㅣ 주말/공휴일 08:00~23:00","StoreShortDesc":"","StoreEmail":"cbk359@coffeebeankorea.com"}},{"type":"Feature","geometry":{"type":"Point","coordinates":[127.1261314961,37.2710500739]},"properties":{"StoreName":"강남대점","StoreTel":"031-693-6312","StoreAddress":"경기도 용인시 기흥구 강남로 3 강남앤플러스 1층","StoreOpendate":"월-금 08:00~23:00 ㅣ 주말/공휴일 08:00~23:00","StoreShortDesc":"주차 2시간무료","StoreEmail":"cbk360@coffeebeankorea.com"}},{"type":"Feature","geometry":{"type":"Point","coordinates":[126.9250869133,37.5568283344]},"properties":{"StoreName":" 홍대역8번출구점","StoreTel":"02-338-9463","StoreAddress":"서울시 마포구 양화로18안길 7 2층","StoreOpendate":"월~목 10:00~23:00 ㅣ 금,토요일 10:00~24:00ㅣ일요일,공휴일 10:00~23:00","StoreShortDesc":"주차불가","StoreEmail":"cbk361@coffeebeankorea.com"}},{"type":"Feature","geometry":{"type":"Point","coordinates":[126.9309825047,37.3585082814]},"properties":{"StoreName":"산본역점","StoreTel":"031-399-8812","StoreAddress":"경기도 군포시 광정로58 1층 104호 및 2층","StoreOpendate":"월-목 08:00~23:00 ㅣ 금,토요일 08:00 ~ 24:00 ㅣ 일,공휴일 08:00~23:00","StoreShortDesc":"","StoreEmail":"cbk362@coffeebeankorea.com"}},{"type":"Feature","geometry":{"type":"Point","coordinates":[126.7548871542,37.5063291292]},"properties":{"StoreName":"부천상동점","StoreTel":"032-329-9471","StoreAddress":"경기도 부천시 길주로 111 센타플라자 1층","StoreOpendate":"월~목: 08:00 ~ 23:00ㅣ금 : 08:00 ~ 00:00 ㅣ 토 : 09:00 ~ 00:00 ㅣ일 : 09:00 ~ 23:00","StoreShortDesc":"주차가능 (영수증 지참 시)","StoreEmail":"cbk363@coffeebeankorea.com"}},{"type":"Feature","geometry":{"type":"Point","coordinates":[126.9218962578,37.399546094]},"properties":{"StoreName":"안양1번가점","StoreTel":"031-468-9096","StoreAddress":"경기도 안양시 만안구 안양로304번길 12 세진빌딩 2층","StoreOpendate":"월-목 10:00 ~ 23:00 ㅣ 금, 토요일 : 10:00 ~ 24:00 (공휴일 전날 연장영업 실시) ㅣ 일, 공휴일 : 10:00 ~ 23:00","StoreShortDesc":"","StoreEmail":"cbk364@coffeebeankorea.com"}},{"type":"Feature","geometry":{"type":"Point","coordinates":[127.927643961,37.3456791389]},"properties":{"StoreName":"원주AK플라자점","StoreTel":"033-748-0631","StoreAddress":"강원도 원주시 봉화로1 AK플라자원주점 1층","StoreOpendate":"월~목 09:30~21:00 ㅣ 금-토요일 09:30~22:00ㅣ일요일,공휴일 09:30~21:00","StoreShortDesc":"","StoreEmail":"cbk366@coffeebeankorea.com"}},{"type":"Feature","geometry":{"type":"Point","coordinates":[127.1249120491,37.4796673949]},"properties":{"StoreName":"송파파크하비오B1점","StoreTel":"02-449-6797","StoreAddress":"서울특별시 송파구 송파대로 111, 송파 파크하비오 하비오길 극장로 203동 지하1층","StoreOpendate":"월~목 09:00~23:00 ㅣ 금,토요일 09:00~00:00ㅣ일요일,공휴일 09:00~23:00","StoreShortDesc":"기본 주차 1시간 이내 무료(시간 초과시 10분/500원)<br/> 출차 서비스 : 무인 정산기 정산 시 30분 이내","StoreEmail":"cbk367@coffeebeankorea.com"}},{"type":"Feature","geometry":{"type":"Point","coordinates":[126.8329940164,37.6317396639]},"properties":{"StoreName":"화정중앙공원점","StoreTel":"031-979-9402","StoreAddress":"경기도 고양시 덕양구 화신로260번길 26 동민프라자 1층 103~107호","StoreOpendate":"일-목 09:00~23:00 I 금-토 09:00~24:00","StoreShortDesc":"","StoreEmail":"cbk368@coffeebeankorea.com"}},{"type":"Feature","geometry":{"type":"Point","coordinates":[127.0292807277,37.498881615]},"properties":{"StoreName":"강남역12번출구점","StoreTel":"02-569-5838","StoreAddress":"서울특별시 강남구 테헤란로 111 2층","StoreOpendate":"월-금 08:00~24:00 ㅣ 주말/공휴일 08:00~24:00","StoreShortDesc":"","StoreEmail":"cbk369@coffeebeankorea.com"}},{"type":"Feature","geometry":{"type":"Point","coordinates":[127.0245169907,37.4974338814]},"properties":{"StoreName":"서초부띠크모나코점","StoreTel":"02-537-4662","StoreAddress":"서울특별시 서초구 서초대로 397 부띠크모나코 1층","StoreOpendate":"월 - 토: 08:00 ~ 22:00 ㅣ 일/공휴일 : 09:00 ~ 22:00","StoreShortDesc":"30분 무료, 추가 시 10분당 1000원","StoreEmail":"cbk370@coffeebeankorea.com"}},{"type":"Feature","geometry":{"type":"Point","coordinates":[127.1236654252,37.4806057552]},"properties":{"StoreName":"송파파크하비오점","StoreTel":"02-449-6881","StoreAddress":"서울 송파구 문정동 618 송파파크하비오 205동 1층","StoreOpendate":"월-금 08:00~23:00 ㅣ 주말/공휴일 08:00~23:00","StoreShortDesc":"기본 주차 1시간 이내 무료(시간 초과시 10분/500원)<br/> 출차 서비스 : 무인 정산기 정산 시 30분 이내","StoreEmail":"cbk371@coffeebeankorea.com"}},{"type":"Feature","geometry":{"type":"Point","coordinates":[127.1210105111,37.4860541974]},"properties":{"StoreName":"문정역엠스테이트점","StoreTel":"02-6177-9080","StoreAddress":"서울 송파구 문정동 643-1번지 엠스테이트 B동 지하1층","StoreOpendate":"평일 08:00~16:00 ㅣ 주말/공휴일 : 휴점","StoreShortDesc":"1시간 무료주차 가능 (영수증 도장 지참시, 매장 이용하시는 고객님 한함)","StoreEmail":"cbk365@coffeebeankorea.com"}},{"type":"Feature","geometry":{"type":"Point","coordinates":[127.0847906791,37.5964473768]},"properties":{"StoreName":"상봉역점","StoreTel":"02-493-8902","StoreAddress":"서울특별시 중랑구 망우로 291 1층","StoreOpendate":"월-금 08:00~23:00 ㅣ 주말/공휴일 09:00~23:00","StoreShortDesc":"","StoreEmail":"cbk372@coffeebeankorea.com"}},{"type":"Feature","geometry":{"type":"Point","coordinates":[127.1559741804,37.5526549472]},"properties":{"StoreName":"강동경희대병원앞점","StoreTel":"02-481-9938","StoreAddress":"서울특별시 강동구 동남로 885 양지빌딩 1층","StoreOpendate":"월-금 07:30~23:00 ㅣ 주말/공휴일 07:30~23:00","StoreShortDesc":"주차 1시간 무료주차","StoreEmail":"cbk347@coffeebeankorea.com"}},{"type":"Feature","geometry":{"type":"Point","coordinates":[127.0624094522,37.6544092001]},"properties":{"StoreName":"노원역점","StoreTel":"02-952-9577","StoreAddress":"서울시 노원구 노해로 490, 길빌딩 2층","StoreOpendate":"평일 07:30 ~ 24:00 | 주말/공휴일 07:30 ~ 24:00","StoreShortDesc":"- 주차장 건물후면의 지상 / 지하 주차장 2개소<br/>- 내방객 1시간까지 무료주차 / 1시간 초과 시 매 30분 단위로 2000원씩 주차료 추가","StoreEmail":"cbk373@coffeebeankorea.com"}},{"type":"Feature","geometry":{"type":"Point","coordinates":[126.9150641404,37.5488134814]},"properties":{"StoreName":"합정역점","StoreTel":"02-338-9178","StoreAddress":"서울시 마포구 독막로 13, 2층","StoreOpendate":"월요일~목요일 08:00~23:00 ㅣ 금요일,토요일 08:00~24:00 ㅣ 일요일,공휴일 08:00~23:00","StoreShortDesc":"1만원 이상 구매시 1시간 무료주차 가능 (이후 1,000 / 20분)","StoreEmail":"cbk374@coffeebeankorea.com"}},{"type":"Feature","geometry":{"type":"Point","coordinates":[126.9851714234,37.5699120126]},"properties":{"StoreName":"종각역점","StoreTel":"02-739-6268","StoreAddress":"서울시 종로구 종로 70 2층","StoreOpendate":"월-금 08:00~23:00 I 토 09:00~23:00 I 일요일/공휴일 10:00~23:00","StoreShortDesc":"","StoreEmail":"cbk375@coffeebeankorea.com"}},{"type":"Feature","geometry":{"type":"Point","coordinates":[127.1115006493,37.0004688553]},"properties":{"StoreName":"평택소사점","StoreTel":"031-692-2405","StoreAddress":"경기도 평택시 평남로 862, 로이드빌딩 1층","StoreOpendate":"월-금 09:00 ~ 23:00 | 주말/공휴일 09:00~23:00","StoreShortDesc":"5000원 이상 구매 시, 자동차 한 대 당 최대 1시간 무료. 이후 추가 10분당 500원","StoreEmail":"cbk377@coffeebeankorea.com"}},{"type":"Feature","geometry":{"type":"Point","coordinates":[127.1127803263,37.5169307868]},"properties":{"StoreName":"몽촌토성역점","StoreTel":"02-2141-0407","StoreAddress":"서울시 송파구 방이동 44-2, 장은빌딩 1층","StoreOpendate":"월~목 07:30~23:00 ㅣ 금요일 07:30~23:30  ㅣ 토요일 08:00~23:30ㅣ일요일,공휴일 08:00~23:00","StoreShortDesc":"","StoreEmail":"cbk378@coffeebeankorea.com"}},{"type":"Feature","geometry":{"type":"Point","coordinates":[127.041675997,37.4922392747]},"properties":{"StoreName":"도곡동지오빌딩점","StoreTel":"02-2058-3027","StoreAddress":"서울특별시 강남구 도곡동 543-1, 지오빌딩 B1층","StoreOpendate":"월-금 07:30~22:30 ㅣ 주말/공휴일 08:00~22:00","StoreShortDesc":"주차가능 (매장 앞 2대 무료주차)","StoreEmail":"cbk379@coffeebeankorea.com"}},{"type":"Feature","geometry":{"type":"Point","coordinates":[127.0257236595,37.6390953704]},"properties":{"StoreName":"강북구청앞점","StoreTel":"02-994-8878","StoreAddress":"서울특별시 강북구 한천로 139길 25, 1층 일부 및 2층 (수유동 191-70)","StoreOpendate":"월-목 8:00 ~ 23:00 | 금,주말/공휴일 8:00 ~ 24:00","StoreShortDesc":"","StoreEmail":"cbk380@coffeebeankorea.com"}},{"type":"Feature","geometry":{"type":"Point","coordinates":[126.662841635,37.3786596951]},"properties":{"StoreName":"송도트리플스트리트점","StoreTel":"032-310-9644","StoreAddress":" 인천 연수구 송도과학로 16번길 33-4 D동 119호,207호","StoreOpendate":"평일 10:30~22:00 ㅣ 주말/공휴일 10:30~22:00","StoreShortDesc":"트리플스트리트 지하 주차장 가능(무료주차)","StoreEmail":"cbk381@coffeebeankorea.com"}},{"type":"Feature","geometry":{"type":"Point","coordinates":[127.0948964555,37.5398571742]},"properties":{"StoreName":"구의삼성쉐르빌점","StoreTel":"02-2201-8953","StoreAddress":"서울특별시 광진구 구의강변로 106 삼성쉐르빌 1층","StoreOpendate":"월-금 07:30~24:00 ㅣ 주말/공휴일 08:00~24:00","StoreShortDesc":"삼성쉐르빌 건물주차 이용가능, 음료구매시 1시간 30분 무료주차","StoreEmail":"cbk382@coffeebeankorea.com"}},{"type":"Feature","geometry":{"type":"Point","coordinates":[126.928065107,37.5197450229]},"properties":{"StoreName":"여의도SK증권빌딩점","StoreTel":"02-6484-5150","StoreAddress":"서울특별시 영등포구 국제금융로8길31 여의도SK증권빌딩점 1층","StoreOpendate":"월-금 07:00~22:30 ㅣ 주말/공휴일 09:00~22:00","StoreShortDesc":" 2시간무료 주차권 제공 / 2시간 초과시 10분당 1,000원의 요금이 발생","StoreEmail":"cbk383@coffeebeankorea.com"}},{"type":"Feature","geometry":{"type":"Point","coordinates":[127.1249628964,37.477613041]},"properties":{"StoreName":"현대시티몰가든파이브점","StoreTel":"02-2673-2110","StoreAddress":"서울특별시 송파구 충민로 66 가든파이브 라이프동 테크노관 1층","StoreOpendate":"월-금 09:00~22:00 ㅣ 주말/공휴일 09:00~22:30","StoreShortDesc":"기본 1시간 무료 / 1만원 이상 결제시 1시간 무료 주차권 제공 / 3만원 이상 결제시 3시간 무료 주차권 제공","StoreEmail":"cbk386@coffeebeankorea.com"}},{"type":"Feature","geometry":{"type":"Point","coordinates":[126.9116485435,37.5510094108]},"properties":{"StoreName":"합정푸르지오점","StoreTel":"02-338-7684","StoreAddress":"서울특별시 마포구 월드컵로 3길 14, 푸르지오 2차 1층","StoreOpendate":"월-목요일 08:00~22:30 | 금요일 08:00~23:00 | 토요일 09:00~23:00 | 일요일 09:00~22:30","StoreShortDesc":"- 영수증 지참시 할인적용<br/>- 1만원 이상 구매시 : 1시간 무료 / 3만원 이상 구매시 : 2시간 무료 / 5만원 이상 구매시 : 3시간 무료<br/>(합산 금액기준 최소 30분 : 무료, 이후 10분당 1,000원)","StoreEmail":"cbk385@coffeebeankorea.com"}},{"type":"Feature","geometry":{"type":"Point","coordinates":[127.0238588898,37.5047249562]},"properties":{"StoreName":"신논현역2번출구점","StoreTel":"02-541-9650","StoreAddress":"서울시 서초구 강남대로 475 2층","StoreOpendate":"평일/토요일 08:00~24:00 ㅣ 일요일/공휴일 08:00~23:00","StoreShortDesc":"주차불가","StoreEmail":"cbk387@coffeebeankorea.com"}},{"type":"Feature","geometry":{"type":"Point","coordinates":[127.1437592186,37.478618817]},"properties":{"StoreName":"위례2차아이파크점","StoreTel":"02-449-9703","StoreAddress":"서울시 송파구 위례광장로 230 위례2차 아이파크 B동 1층","StoreOpendate":"평일 08:30~23:00 ㅣ주말 08:30~23:00","StoreShortDesc":"무료주차가능","StoreEmail":"cbk376@coffeebeankorea.com"}},{"type":"Feature","geometry":{"type":"Point","coordinates":[127.0021556061,37.5827034415]},"properties":{"StoreName":"혜화역1번출구점","StoreTel":"02-766-7937","StoreAddress":"서울특별시 종로구 대학로 128 2층","StoreOpendate":"월-금 10:00~23:00 ㅣ 주말/공휴일 10:00~23:00","StoreShortDesc":"주차불가","StoreEmail":"cbk388@coffeebeankorea.com"}},{"type":"Feature","geometry":{"type":"Point","coordinates":[127.0071420442,37.5875902317]},"properties":{"StoreName":"한성대입구역점","StoreTel":"02-766-7951","StoreAddress":"서울특별시 성북구 삼선교로 12 1층","StoreOpendate":"월-금 08:00~23:00 ㅣ 주말/공휴일 08:00~23:00","StoreShortDesc":"주차불가","StoreEmail":"cbk389@coffeebeankorea.com"}},{"type":"Feature","geometry":{"type":"Point","coordinates":[127.0552350053,37.4966234189]},"properties":{"StoreName":"한티역디마크빌딩점","StoreTel":"02-2052-6590","StoreAddress":"서울특별시 강남구 도곡로 408 디마크빌딩 1층","StoreOpendate":"평일 07:30~23:00 ㅣ주말 08:00~23:00","StoreShortDesc":"건물주차 1시간 무료 (이후 10분당 500원)","StoreEmail":"cbk391@coffeebeankorea.com"}},{"type":"Feature","geometry":{"type":"Point","coordinates":[127.0260532395,37.5055101692]},"properties":{"StoreName":"논현201-5번지점","StoreTel":"02-541-9563","StoreAddress":"서울특별시 강남구  강남대로112길 20 1층, 2층","StoreOpendate":"평일/주말/공휴일 08:00~23:00","StoreShortDesc":"주차불가","StoreEmail":"cbk384@coffeebeankorea.com"}},{"type":"Feature","geometry":{"type":"Point","coordinates":[129.1144807659,35.1653580842]},"properties":{"StoreName":"부산수영역점","StoreTel":"051-759-9046","StoreAddress":"부산광역시 수영구 수영로 667 1층","StoreOpendate":"월-금 08:00~23:00 ㅣ 주말/공휴일 08:00~23:00","StoreShortDesc":"주차불가","StoreEmail":"cbk393@coffeebeankorea.com"}},{"type":"Feature","geometry":{"type":"Point","coordinates":[129.1756365309,35.321914539]},"properties":{"StoreName":"부산정관점","StoreTel":"051-728-7435","StoreAddress":"부산광역시 기장군 정관로 563 1층,2층","StoreOpendate":"월-금 08:30~22:30 ㅣ 주말/공휴일 08:30~22:30","StoreShortDesc":"1시간 무료주차 가능","StoreEmail":"cbk390@coffeebeankorea.com"}},{"type":"Feature","geometry":{"type":"Point","coordinates":[127.0029236999,37.305075568]},"properties":{"StoreName":"수원송죽DT점","StoreTel":"031-248-6086","StoreAddress":"경기도 수원시 장안구 경수대로 989","StoreOpendate":"평일 07:00~24:00 ㅣ주말 07:00~24:00","StoreShortDesc":"주차가능","StoreEmail":"cbk392@coffeebeankorea.com"}},{"type":"Feature","geometry":{"type":"Point","coordinates":[126.9265204551,37.5583789503]},"properties":{"StoreName":"동교동삼거리점","StoreTel":"02-336-9198 ","StoreAddress":"서울특별시 마포구 양화로 196(동교동)서울특별시 마포구 양화로 196(동교동)","StoreOpendate":"평일 09:00~23:00 ㅣ주말  09:00~23:00","StoreShortDesc":"주차불가","StoreEmail":"cbk394@coffeebeankorea.com"}},{"type":"Feature","geometry":{"type":"Point","coordinates":[127.1409797541,37.443425058]},"properties":{"StoreName":"성남신흥점","StoreTel":"031-759-6675","StoreAddress":"경기도 성남시 수정구 수정로 190 (신흥동)","StoreOpendate":"평일 08:00~23:00 ㅣ주말 08:00~23:00","StoreShortDesc":"주차불가","StoreEmail":"cbk395@coffeebeankorea.com"}},{"type":"Feature","geometry":{"type":"Point","coordinates":[126.9210933403,37.6004446486]},"properties":{"StoreName":"응암동점 ","StoreTel":"02-389-6283","StoreAddress":"서울시 은평구 은평로 121(응암동), 메디컬빌딩","StoreOpendate":"평일 08:00~23:00 ㅣ주말 09:00~23:00","StoreShortDesc":"주차불가","StoreEmail":"cbk396@coffeebeankorea.com"}},{"type":"Feature","geometry":{"type":"Point","coordinates":[126.9701447216,37.2826287942]},"properties":{"StoreName":"서수원이마트점","StoreTel":"031-278-6593","StoreAddress":"경기도 수원시 권선구 수인로 291(구운동), 이마트 서수원점 1층","StoreOpendate":"평일 10:00~22:00 ㅣ주말 10:00~22:00 (매월 2주,4주 일요일 정기휴무)","StoreShortDesc":"이마트 내 주차가능","StoreEmail":"cbk397@coffeebeankorea.com"}},{"type":"Feature","geometry":{"type":"Point","coordinates":[126.8404206987,37.5662443594]},"properties":{"StoreName":"양천향교역점","StoreTel":"02-3665-9506","StoreAddress":"서울특별시 강서구 강서로 457(마곡동)","StoreOpendate":"평일 08:00~23:00 ㅣ주말 08:00~23:00","StoreShortDesc":"","StoreEmail":"cbk398@coffeebeankorea.com"}},{"type":"Feature","geometry":{"type":"Point","coordinates":[126.9748766661,37.2950353892]},"properties":{"StoreName":"성균관대 자연과학캠퍼스점","StoreTel":"031-278-7640","StoreAddress":"경기 수원시 장안구 서부로 2066, 성균관대 자연과학 캠퍼스 N센터 1층","StoreOpendate":"평일 08:00~21:00 ㅣ토요일 11:00~20:00 l 일,공휴일 휴점","StoreShortDesc":"최초 10분 미만(무료) /최초 10분 이후에서 1시간  1,500원 / 초과 30분당 500원(단, 2시간 이후 30분당 1,000원)","StoreEmail":"cbk399@coffeebeankorea.com"}},{"type":"Feature","geometry":{"type":"Point","coordinates":[126.8330364132,37.5600677343]},"properties":{"StoreName":"마곡마커스빌딩점 ","StoreTel":"02-2084-7050","StoreAddress":"서울특별시 강서구 마곡동로 55 마커스빌딩 1층 102호 일부","StoreOpendate":"평일 07:30~22:00 ㅣ주말,공휴일 10:00-22:00","StoreShortDesc":"주차안내 : 평일 1시간(무료) /주말 2시간(무료)","StoreEmail":"cbk400@coffeebeankorea.com"}},{"type":"Feature","geometry":{"type":"Point","coordinates":[127.125789418,37.5093528229]},"properties":{"StoreName":"방이역4번출구점","StoreTel":"02-420-0386 ","StoreAddress":"서울 송파구 방이동 206-11","StoreOpendate":"평일 08:00~23:00 ㅣ주말,공휴일 08:00-24:00(임시)","StoreShortDesc":"주차안내 : 주차가능 ( 선착순 4대 가능)","StoreEmail":"cbk401@coffeebeankorea.com"}}]}
