{
  "type": "FeatureCollection",
  "features": [
    {
      "type": "Feature",
      "geometry": {
        "type": "Point",
        "coordinates": [
          129.013106,
          35.233829
        ]
      },
      "properties": {
        "s_code": "642",
        "s_name": "부산화명역",
        "gugun_code": "0505",
        "addr": "부산광역시 북구 화명동 2287-3번지",
        "doro_address": "부산광역시 북구 금곡대로285번길 5 (화명동)",
        "open_dt": "20130723"
      }
    },
    {
      "type": "Feature",
      "geometry": {
        "type": "Point",
        "coordinates": [
          129.176983,
          35.321336
        ]
      },
      "properties": {
        "s_code": "671",
        "s_name": "부산정관",
        "gugun_code": "0511",
        "addr": "부산광역시 기장군 정관면 매학리 717-1 1~2층",
        "doro_address": "부산광역시 기장군 정관면 정관로 579, 1~2층",
        "open_dt": "20130930"
      }
    },
    {
      "type": "Feature",
      "geometry": {
        "type": "Point",
        "coordinates": [
          129.0847552,
          35.2640133
        ]
      },
      "properties": {
        "s_code": "925",
        "s_name": "부산외대",
        "gugun_code": "0501",
        "addr": "부산광역시 금정구 남산동 992-7",
        "doro_address": "부산광역시 금정구 금샘로 459",
        "open_dt": "20150504"
      }
    },
    {
      "type": "Feature",
      "geometry": {
        "type": "Point",
        "coordinates": [
          129.008358,
          35.210787
        ]
      },
      "properties": {
        "s_code": "712",
        "s_name": "부산덕천역",
        "gugun_code": "0505",
        "addr": "부산광역시 북구 덕천동 383-1",
        "doro_address": "부산광역시 북구 만덕대로 30 (덕천동)",
        "open_dt": "20131223"
      }
    },
    {
      "type": "Feature",
      "geometry": {
        "type": "Point",
        "coordinates": [
          129.090774,
          35.250184
        ]
      },
      "properties": {
        "s_code": "413",
        "s_name": "금정이마트",
        "gugun_code": "0501",
        "addr": "부산광역시 금정구 구서동 368번지",
        "doro_address": "부산광역시 금정구 중앙대로1841번길 24 (구서동)",
        "open_dt": "20110728"
      }
    },
    {
      "type": "Feature",
      "geometry": {
        "type": "Point",
        "coordinates": [
          129.236612,
          35.325248
        ]
      },
      "properties": {
        "s_code": "658",
        "s_name": "부산P.아울렛",
        "gugun_code": "0511",
        "addr": "부산광역시 기장군 장안읍 좌천리 497-4",
        "doro_address": "부산광역시 기장군 정관로 1133 (175호)",
        "open_dt": "20130828"
      }
    },
    {
      "type": "Feature",
      "geometry": {
        "type": "Point",
        "coordinates": [
          129.084565,
          35.232107
        ]
      },
      "properties": {
        "s_code": "783",
        "s_name": "부산대정문",
        "gugun_code": "0501",
        "addr": "부산광역시 금정구 장전동 401-13",
        "doro_address": "부산광역시 금정구 부산대학로64번길 12 (장전동)",
        "open_dt": "20140528"
      }
    },
    {
      "type": "Feature",
      "geometry": {
        "type": "Point",
        "coordinates": [
          129.0866474,
          35.2306157
        ]
      },
      "properties": {
        "s_code": "163",
        "s_name": "부산대",
        "gugun_code": "0501",
        "addr": "부산광역시 금정구 장전동 310-3 건우빌딩",
        "doro_address": "부산광역시 금정구 금정로68번길 2, 건우빌딩 (장전동)",
        "open_dt": "20010518"
      }
    },
    {
      "type": "Feature",
      "geometry": {
        "type": "Point",
        "coordinates": [
          129.088165,
          35.230722
        ]
      },
      "properties": {
        "s_code": "709",
        "s_name": "부산대역",
        "gugun_code": "0501",
        "addr": "부산광역시 금정구 장전동 414-39 1~4층",
        "doro_address": "부산광역시 금정구 장전로12번길 64, 1~4층 (장전동)",
        "open_dt": "20131220"
      }
    },
    {
      "type": "Feature",
      "geometry": {
        "type": "Point",
        "coordinates": [
          129.08656,
          35.224006
        ]
      },
      "properties": {
        "s_code": "1289",
        "s_name": "온천장역DT",
        "gugun_code": "0501",
        "addr": "부산광역시 금정구 장전동 607-6",
        "doro_address": "부산광역시 금정구 식물원로 13 (장전동)",
        "open_dt": "20171109"
      }
    },
    {
      "type": "Feature",
      "geometry": {
        "type": "Point",
        "coordinates": [
          129.085506,
          35.221082
        ]
      },
      "properties": {
        "s_code": "571",
        "s_name": "부산온천장역",
        "gugun_code": "0514",
        "addr": "부산광역시 동래구 온천동 153-8 에스케이허브스카이 1층",
        "doro_address": "부산광역시 동래구 중앙대로 1523, SK허브스카이위아아파트 1층 (온천동)",
        "open_dt": "20121221"
      }
    },
    {
      "type": "Feature",
      "geometry": {
        "type": "Point",
        "coordinates": [
          128.983473,
          35.164003
        ]
      },
      "properties": {
        "s_code": "412",
        "s_name": "사상역",
        "gugun_code": "0506",
        "addr": "부산광역시 사상구 괘법동 526-7번지",
        "doro_address": "부산광역시 사상구 사상로 211 (괘법동)",
        "open_dt": "20110727"
      }
    },
    {
      "type": "Feature",
      "geometry": {
        "type": "Point",
        "coordinates": [
          129.078378,
          35.212443
        ]
      },
      "properties": {
        "s_code": "1235",
        "s_name": "명륜역",
        "gugun_code": "0514",
        "addr": "부산광역시 동래구 온천동 473-21",
        "doro_address": "부산광역시 동래구 동래로 25 ",
        "open_dt": "20170622"
      }
    },
    {
      "type": "Feature",
      "geometry": {
        "type": "Point",
        "coordinates": [
          129.0719664,
          35.2072439
        ]
      },
      "properties": {
        "s_code": "864",
        "s_name": "동래미남DT",
        "gugun_code": "0514",
        "addr": "부산광역시 동래구 온천동 1428-36",
        "doro_address": "부산광역시 동래구 충렬대로 101 (온천동)",
        "open_dt": "20141212"
      }
    },
    {
      "type": "Feature",
      "geometry": {
        "type": "Point",
        "coordinates": [
          129.060473,
          35.198093
        ]
      },
      "properties": {
        "s_code": "533",
        "s_name": "부산사직",
        "gugun_code": "0514",
        "addr": "부산광역시 동래구 사직동 47-27번지",
        "doro_address": "부산광역시 동래구 사직북로 24 (사직동)",
        "open_dt": "20120711"
      }
    },
    {
      "type": "Feature",
      "geometry": {
        "type": "Point",
        "coordinates": [
          129.061289,
          35.195954
        ]
      },
      "properties": {
        "s_code": "1133",
        "s_name": "사직구장",
        "gugun_code": "0514",
        "addr": "부산광역시 동래구 사직동 93-6 사직동 자이언츠 파크",
        "doro_address": "부산광역시 동래구 사직북로 4 (사직동)",
        "open_dt": "20161118"
      }
    },
    {
      "type": "Feature",
      "geometry": {
        "type": "Point",
        "coordinates": [
          129.077505,
          35.195708
        ]
      },
      "properties": {
        "s_code": "735",
        "s_name": "부산교대",
        "gugun_code": "0508",
        "addr": "부산광역시 연제구 거제동 89-60 2~3층",
        "doro_address": "부산광역시 연제구 교대로 20-2 (거제동)",
        "open_dt": "20140220"
      }
    },
    {
      "type": "Feature",
      "geometry": {
        "type": "Point",
        "coordinates": [
          129.08097929999997,
          35.1964682
        ]
      },
      "properties": {
        "s_code": "1036",
        "s_name": "부산교대역",
        "gugun_code": "0508",
        "addr": "부산광역시 연제구 거제동 129-5 한양프라자",
        "doro_address": "부산광역시 연제구 명륜로 3 (거제제1동) 한양프라자",
        "open_dt": "20160226"
      }
    },
    {
      "type": "Feature",
      "geometry": {
        "type": "Point",
        "coordinates": [
          129.010026,
          35.150863
        ]
      },
      "properties": {
        "s_code": "1277",
        "s_name": "동서대DT",
        "gugun_code": "0506",
        "addr": "부산광역시 사상구 주례동 189-9,189-11,189-12,189-13",
        "doro_address": "부산광역시 사상구 가야대로 338 (주례동)",
        "open_dt": "20170928"
      }
    },
    {
      "type": "Feature",
      "geometry": {
        "type": "Point",
        "coordinates": [
          129.080949,
          35.188225
        ]
      },
      "properties": {
        "s_code": "1234",
        "s_name": "연산시티타워",
        "gugun_code": "0508",
        "addr": "부산광역시 연제구 연산동 1124-3 C T 타워(A동 107,108,109)",
        "doro_address": "부산광역시 연제구 중앙대로 1125 (연산동)",
        "open_dt": "20170629"
      }
    },
    {
      "type": "Feature",
      "geometry": {
        "type": "Point",
        "coordinates": [
          129.08067,
          35.185469
        ]
      },
      "properties": {
        "s_code": "820",
        "s_name": "연산중앙로",
        "gugun_code": "0508",
        "addr": "부산광역시 연제구 연산동 1242-12, 30",
        "doro_address": "부산광역시 연제구 중앙대로 1091 (연산동)",
        "open_dt": "20140814"
      }
    },
    {
      "type": "Feature",
      "geometry": {
        "type": "Point",
        "coordinates": [
          129.0833335,
          35.1869475
        ]
      },
      "properties": {
        "s_code": "799",
        "s_name": "부산연산역",
        "gugun_code": "0508",
        "addr": "부산광역시 연제구 연산동 603-10외 1필지",
        "doro_address": "부산광역시 연제구 반송로 20 (연산동)",
        "open_dt": "20140626"
      }
    },
    {
      "type": "Feature",
      "geometry": {
        "type": "Point",
        "coordinates": [
          129.0226067,
          35.152899
        ]
      },
      "properties": {
        "s_code": "871",
        "s_name": "부산개금역",
        "gugun_code": "0504",
        "addr": "부산광역시 부산진구 개금동 177-289 SH빌딩 지상 1층",
        "doro_address": "부산광역시 부산진구 가야대로 462 (개금동)",
        "open_dt": "20141218"
      }
    },
    {
      "type": "Feature",
      "geometry": {
        "type": "Point",
        "coordinates": [
          128.959578,
          35.11526
        ]
      },
      "properties": {
        "s_code": "1085",
        "s_name": "을숙도강변DT",
        "gugun_code": "0507",
        "addr": "부산광역시 사하구 하단동 1157-17",
        "doro_address": "부산광역시 사하구 하신번영로 381-6 (하단동)",
        "open_dt": "20160630"
      }
    },
    {
      "type": "Feature",
      "geometry": {
        "type": "Point",
        "coordinates": [
          129.10695409999994,
          35.1958595
        ]
      },
      "properties": {
        "s_code": "946",
        "s_name": "부산안락DT",
        "gugun_code": "0514",
        "addr": "부산광역시 동래구 안락동 256-4",
        "doro_address": "부산광역시 동래구 충렬대로 446 (안락동)",
        "open_dt": "20150625"
      }
    },
    {
      "type": "Feature",
      "geometry": {
        "type": "Point",
        "coordinates": [
          129.036202,
          35.155057
        ]
      },
      "properties": {
        "s_code": "1048",
        "s_name": "동의대역",
        "gugun_code": "0504",
        "addr": "부산광역시 부산진구 가야동 82-16",
        "doro_address": "부산광역시 부산진구 가야대로 589 (가야제1동)",
        "open_dt": "20160329"
      }
    },
    {
      "type": "Feature",
      "geometry": {
        "type": "Point",
        "coordinates": [
          129.052684,
          35.163918
        ]
      },
      "properties": {
        "s_code": "432",
        "s_name": "서면트레이더스",
        "gugun_code": "0504",
        "addr": "부산광역시 부산진구 부암동 93 이마트트레이더스서면점",
        "doro_address": "부산광역시 부산진구 시민공원로 31 (부암동)",
        "open_dt": "20110830"
      }
    },
    {
      "type": "Feature",
      "geometry": {
        "type": "Point",
        "coordinates": [
          128.903135,
          35.084043
        ]
      },
      "properties": {
        "s_code": "478",
        "s_name": "명지오션시티",
        "gugun_code": "0513",
        "addr": "부산광역시 강서구 명지동 3238",
        "doro_address": "부산광역시 강서구 명지오션시티11로 66 (명지동)",
        "open_dt": "20120131"
      }
    },
    {
      "type": "Feature",
      "geometry": {
        "type": "Point",
        "coordinates": [
          129.06926269999997,
          35.1700743
        ]
      },
      "properties": {
        "s_code": "990",
        "s_name": "양정역",
        "gugun_code": "0504",
        "addr": "부산광역시 부산진구 양정동 363-1",
        "doro_address": "부산광역시 부산진구 중앙대로 894 (양정동)",
        "open_dt": "20151021"
      }
    },
    {
      "type": "Feature",
      "geometry": {
        "type": "Point",
        "coordinates": [
          128.964925,
          35.113113
        ]
      },
      "properties": {
        "s_code": "834",
        "s_name": "부산동아대",
        "gugun_code": "0507",
        "addr": "부산광역시 사하구 하단동 492-9외 1필지 1~3층",
        "doro_address": "부산광역시 사하구 낙동대로550번길 14 (하단동) 1~3층",
        "open_dt": "20140924"
      }
    },
    {
      "type": "Feature",
      "geometry": {
        "type": "Point",
        "coordinates": [
          129.061933,
          35.16183
        ]
      },
      "properties": {
        "s_code": "452",
        "s_name": "부전역",
        "gugun_code": "0504",
        "addr": "부산광역시 부산진구 부전동 573-7 서면호텔 복합시설1,2층",
        "doro_address": "부산광역시 부산진구 중앙대로 777, 서면호텔 복합시설1,2층 (부전동)",
        "open_dt": "20111125"
      }
    },
    {
      "type": "Feature",
      "geometry": {
        "type": "Point",
        "coordinates": [
          129.05740949999995,
          35.157961
        ]
      },
      "properties": {
        "s_code": "580",
        "s_name": "서면메디컬거리",
        "gugun_code": "0504",
        "addr": "부산광역시 부산진구 부전동 486-20번지 1층",
        "doro_address": "부산광역시 부산진구 가야대로 783-1, 1층 (부전동)",
        "open_dt": "20130117"
      }
    },
    {
      "type": "Feature",
      "geometry": {
        "type": "Point",
        "coordinates": [
          129.05999229999998,
          35.1579735
        ]
      },
      "properties": {
        "s_code": "290",
        "s_name": "서면역",
        "gugun_code": "0504",
        "addr": "부산광역시 부산진구 부전동 139-3번지",
        "doro_address": "부산광역시 부산진구 서전로 1 (부전동)",
        "open_dt": "20091019"
      }
    },
    {
      "type": "Feature",
      "geometry": {
        "type": "Point",
        "coordinates": [
          129.058076,
          35.156863
        ]
      },
      "properties": {
        "s_code": "361",
        "s_name": "서면중앙",
        "gugun_code": "0504",
        "addr": "부산광역시 부산진구 부전동 257-42",
        "doro_address": "부산광역시 부산진구 서면로68번길 1 (부전동)",
        "open_dt": "20110111"
      }
    },
    {
      "type": "Feature",
      "geometry": {
        "type": "Point",
        "coordinates": [
          128.966103,
          35.106522
        ]
      },
      "properties": {
        "s_code": "500",
        "s_name": "하단중앙",
        "gugun_code": "0507",
        "addr": "부산광역시 사하구 하단동 526-5번지",
        "doro_address": "부산광역시 사하구 낙동남로 1411 (하단동)",
        "open_dt": "20120406"
      }
    },
    {
      "type": "Feature",
      "geometry": {
        "type": "Point",
        "coordinates": [
          129.061744,
          35.157995
        ]
      },
      "properties": {
        "s_code": "736",
        "s_name": "서면서전로",
        "gugun_code": "0504",
        "addr": "부산광역시 부산진구 부전동 143-5",
        "doro_address": "부산광역시 부산진구 서전로 19 (부전동)",
        "open_dt": "20140220"
      }
    },
    {
      "type": "Feature",
      "geometry": {
        "type": "Point",
        "coordinates": [
          128.968109,
          35.107143
        ]
      },
      "properties": {
        "s_code": "315",
        "s_name": "하단역",
        "gugun_code": "0507",
        "addr": "부산광역시 사하구 하단동 529-16번지 1층",
        "doro_address": "부산광역시 사하구 낙동대로 474, 1층 (하단동)",
        "open_dt": "20100311"
      }
    },
    {
      "type": "Feature",
      "geometry": {
        "type": "Point",
        "coordinates": [
          129.058883,
          35.155521
        ]
      },
      "properties": {
        "s_code": "690",
        "s_name": "부산서면중앙로",
        "gugun_code": "0504",
        "addr": "부산광역시 부산진구 부전동 255-11 1~3층",
        "doro_address": "부산광역시 부산진구 중앙대로 701, 1~3층 (부전동)",
        "open_dt": "20131115"
      }
    },
    {
      "type": "Feature",
      "geometry": {
        "type": "Point",
        "coordinates": [
          129.063029,
          35.157036
        ]
      },
      "properties": {
        "s_code": "1105",
        "s_name": "서면NC",
        "gugun_code": "0504",
        "addr": "부산광역시 부산진구 전포동 668-1 NC백화점 1층",
        "doro_address": "부산광역시 부산진구 동천로 92 (전포동) NC백화점 1층",
        "open_dt": "20160831"
      }
    },
    {
      "type": "Feature",
      "geometry": {
        "type": "Point",
        "coordinates": [
          129.057306,
          35.152955
        ]
      },
      "properties": {
        "s_code": "567",
        "s_name": "서면일번가",
        "gugun_code": "0504",
        "addr": "부산광역시 부산진구 부전동 522-4 번지",
        "doro_address": "부산광역시 부산진구 서면로 25 (부전동)",
        "open_dt": "20121115"
      }
    },
    {
      "type": "Feature",
      "geometry": {
        "type": "Point",
        "coordinates": [
          129.061562,
          35.154098
        ]
      },
      "properties": {
        "s_code": "653",
        "s_name": "부산서면",
        "gugun_code": "0504",
        "addr": "부산광역시 부산진구 부전동 219-3번지",
        "doro_address": "부산광역시 부산진구 중앙대로692번길 46-10 (부전동)",
        "open_dt": "20130822"
      }
    },
    {
      "type": "Feature",
      "geometry": {
        "type": "Point",
        "coordinates": [
          129.063631,
          35.154345
        ]
      },
      "properties": {
        "s_code": "844",
        "s_name": "서면전포역",
        "gugun_code": "0504",
        "addr": "부산광역시 부산진구 전포동 691-2",
        "doro_address": "부산광역시 부산진구 전포대로199번길 27 (전포동)",
        "open_dt": "20141021"
      }
    },
    {
      "type": "Feature",
      "geometry": {
        "type": "Point",
        "coordinates": [
          129.061139,
          35.15151
        ]
      },
      "properties": {
        "s_code": "422",
        "s_name": "서면센트럴스퀘어",
        "gugun_code": "0504",
        "addr": "부산광역시 부산진구 부전동 537-9번지",
        "doro_address": "부산광역시 부산진구 중앙대로666번길 50 (부전동)",
        "open_dt": "20110826"
      }
    },
    {
      "type": "Feature",
      "geometry": {
        "type": "Point",
        "coordinates": [
          129.107428,
          35.177411
        ]
      },
      "properties": {
        "s_code": "1027",
        "s_name": "수영망미DT",
        "gugun_code": "0512",
        "addr": "부산광역시 수영구 망미동 412-27",
        "doro_address": "부산광역시 수영구 과정로 68 (망미동)",
        "open_dt": "20160115"
      }
    },
    {
      "type": "Feature",
      "geometry": {
        "type": "Point",
        "coordinates": [
          129.12405,
          35.181271
        ]
      },
      "properties": {
        "s_code": "1098",
        "s_name": "부산재송DT",
        "gugun_code": "0516",
        "addr": "부산광역시 해운대구 재송동 572-2 외 4필지",
        "doro_address": "부산광역시 해운대구 해운대로 189 (재송동)",
        "open_dt": "20160812"
      }
    },
    {
      "type": "Feature",
      "geometry": {
        "type": "Point",
        "coordinates": [
          129.06594129999996,
          35.1470479
        ]
      },
      "properties": {
        "s_code": "934",
        "s_name": "BIFC Mall",
        "gugun_code": "0502",
        "addr": "부산광역시 남구 문현동 1229-2",
        "doro_address": "부산광역시 남구 문현금융로 40 (문현동) 부산국제금융센터",
        "open_dt": "20150529"
      }
    },
    {
      "type": "Feature",
      "geometry": {
        "type": "Point",
        "coordinates": [
          129.126697,
          35.174668
        ]
      },
      "properties": {
        "s_code": "754",
        "s_name": "센텀그린타워",
        "gugun_code": "0516",
        "addr": "부산광역시 해운대구 우동 1462",
        "doro_address": "부산광역시 해운대구 센텀중앙로 78 (우동)",
        "open_dt": "20140327"
      }
    },
    {
      "type": "Feature",
      "geometry": {
        "type": "Point",
        "coordinates": [
          129.016686,
          35.112688
        ]
      },
      "properties": {
        "s_code": "590",
        "s_name": "부산동대신역",
        "gugun_code": "0515",
        "addr": "부산광역시 서구 동대신동3가 510 외 1필지",
        "doro_address": "부산광역시 서구 구덕로322번길 7 (동대신동3가)",
        "open_dt": "20130228"
      }
    },
    {
      "type": "Feature",
      "geometry": {
        "type": "Point",
        "coordinates": [
          129.0639376,
          35.1377843
        ]
      },
      "properties": {
        "s_code": "859",
        "s_name": "범일교차로",
        "gugun_code": "0503",
        "addr": "부산광역시 동구 범일동 828-9 부산상록회관(상록회관)",
        "doro_address": "부산광역시 동구 조방로 4 (범일동)",
        "open_dt": "20141127"
      }
    },
    {
      "type": "Feature",
      "geometry": {
        "type": "Point",
        "coordinates": [
          129.114642,
          35.16573
        ]
      },
      "properties": {
        "s_code": "1181",
        "s_name": "수영역",
        "gugun_code": "0512",
        "addr": "부산광역시 수영구 광안동 1077-12",
        "doro_address": "부산광역시 수영구 수영로 671 (광안동)",
        "open_dt": "20170303"
      }
    },
    {
      "type": "Feature",
      "geometry": {
        "type": "Point",
        "coordinates": [
          128.994352,
          35.098451
        ]
      },
      "properties": {
        "s_code": "575",
        "s_name": "부산괴정역",
        "gugun_code": "0507",
        "addr": "부산광역시 사하구 괴정동 961-6번지",
        "doro_address": "부산광역시 사하구 사하로186번길 6 (괴정동)",
        "open_dt": "20130109"
      }
    },
    {
      "type": "Feature",
      "geometry": {
        "type": "Point",
        "coordinates": [
          129.128934,
          35.171765
        ]
      },
      "properties": {
        "s_code": "576",
        "s_name": "센텀KNN",
        "gugun_code": "0516",
        "addr": "부산광역시 해운대구 우동 1468,1469 번지 (KNN 타워 107호 일부)",
        "doro_address": "부산광역시 해운대구 센텀서로 30 (우동)",
        "open_dt": "20130109"
      }
    },
    {
      "type": "Feature",
      "geometry": {
        "type": "Point",
        "coordinates": [
          129.128344,
          35.169914
        ]
      },
      "properties": {
        "s_code": "1053",
        "s_name": "센텀몰 5",
        "gugun_code": "0516",
        "addr": "부산광역시 해운대구 우동 1493",
        "doro_address": "부산광역시 해운대구 센텀4로 15 (우동)[*미고시]",
        "open_dt": "20160408"
      }
    },
    {
      "type": "Feature",
      "geometry": {
        "type": "Point",
        "coordinates": [
          129.131112,
          35.17137
        ]
      },
      "properties": {
        "s_code": "436",
        "s_name": "월드마크센텀",
        "gugun_code": "0516",
        "addr": "부산광역시 해운대구 우동 1488번지 1층",
        "doro_address": "부산광역시 해운대구 센텀동로 25, 1층 (우동)",
        "open_dt": "20110909"
      }
    },
    {
      "type": "Feature",
      "geometry": {
        "type": "Point",
        "coordinates": [
          129.1296297,
          35.16891347
        ]
      },
      "properties": {
        "s_code": "309",
        "s_name": "센텀갤러리",
        "gugun_code": "0516",
        "addr": "부산광역시 해운대구 우동 1495 신세계센텀 UEC 6F",
        "doro_address": "부산광역시 해운대구 센텀남대로 35, 신세계백화점 UEC 6F (우동)",
        "open_dt": "20091201"
      }
    },
    {
      "type": "Feature",
      "geometry": {
        "type": "Point",
        "coordinates": [
          129.1297466,
          35.1687027
        ]
      },
      "properties": {
        "s_code": "807",
        "s_name": "센텀신세계B1",
        "gugun_code": "0516",
        "addr": "부산광역시 해운대구 우동 1495 신세계백화점센텀시티점 B1",
        "doro_address": "부산광역시 해운대구 센텀남대로 35 (우동) 센텀시티 신세계UEC",
        "open_dt": "20140715"
      }
    },
    {
      "type": "Feature",
      "geometry": {
        "type": "Point",
        "coordinates": [
          129.132271,
          35.169925
        ]
      },
      "properties": {
        "s_code": "537",
        "s_name": "센텀시티역",
        "gugun_code": "0516",
        "addr": "부산광역시 해운대구 우동 1498 트럼프월드센텀 1층",
        "doro_address": "부산광역시 해운대구 센텀동로 9, 트럼프월드센텀아파트 1층 (우동)",
        "open_dt": "20120725"
      }
    },
    {
      "type": "Feature",
      "geometry": {
        "type": "Point",
        "coordinates": [
          129.13153920000002,
          35.1678356
        ]
      },
      "properties": {
        "s_code": "966",
        "s_name": "센텀로",
        "gugun_code": "0516",
        "addr": "부산광역시 해운대구 우동 1518 센텀메디컬센타 1층 스타벅스 센텀로점",
        "doro_address": "부산광역시 해운대구 센텀2로 10 (우동) 센텀메디컬센타 1층 스타벅스 센텀로점",
        "open_dt": "20150820"
      }
    },
    {
      "type": "Feature",
      "geometry": {
        "type": "Point",
        "coordinates": [
          129.0407837,
          35.11631935
        ]
      },
      "properties": {
        "s_code": "125",
        "s_name": "부산역",
        "gugun_code": "0503",
        "addr": "부산광역시 동구 초량동 1199-9",
        "doro_address": "부산광역시 동구 중앙대로 216 (초량동)",
        "open_dt": "20080329"
      }
    },
    {
      "type": "Feature",
      "geometry": {
        "type": "Point",
        "coordinates": [
          129.1354444,
          35.16884711
        ]
      },
      "properties": {
        "s_code": "140",
        "s_name": "벡스코",
        "gugun_code": "0516",
        "addr": "부산광역시 해운대구 우동 우2동 1500번지 벡스코내",
        "doro_address": "부산광역시 해운대구 APEC로 55, 벡스코내 (우동)",
        "open_dt": "20070214"
      }
    },
    {
      "type": "Feature",
      "geometry": {
        "type": "Point",
        "coordinates": [
          129.132829,
          35.167027
        ]
      },
      "properties": {
        "s_code": "495",
        "s_name": "센텀드림월드",
        "gugun_code": "0516",
        "addr": "부산광역시 해운대구 우동 1510번지 센텀드림월드1층",
        "doro_address": "부산광역시 해운대구 센텀2로 25, 센텀드림월드 1층 (우동)",
        "open_dt": "20120328"
      }
    },
    {
      "type": "Feature",
      "geometry": {
        "type": "Point",
        "coordinates": [
          129.02022,
          35.103629
        ]
      },
      "properties": {
        "s_code": "856",
        "s_name": "부민사거리",
        "gugun_code": "0515",
        "addr": "부산광역시 서구 부민동 18-13",
        "doro_address": "부산광역시 서구 구덕로 212 (부민동1가)",
        "open_dt": "20141118"
      }
    },
    {
      "type": "Feature",
      "geometry": {
        "type": "Point",
        "coordinates": [
          129.039633,
          35.113076
        ]
      },
      "properties": {
        "s_code": "679",
        "s_name": "부산초량",
        "gugun_code": "0503",
        "addr": "부산광역시 동구 초량동 1212-22 대창빌딩 1~2층",
        "doro_address": "부산광역시 동구 중앙대로180번길 12-4, 대창빌딩 1~2층 (초량동)",
        "open_dt": "20131022"
      }
    },
    {
      "type": "Feature",
      "geometry": {
        "type": "Point",
        "coordinates": [
          129.1208407,
          35.15502782
        ]
      },
      "properties": {
        "s_code": "184",
        "s_name": "광안리",
        "gugun_code": "0512",
        "addr": "부산광역시 수영구 민락동 178-19 1~3층",
        "doro_address": "부산광역시 수영구 광안해변로 247 (민락동)",
        "open_dt": "20020529"
      }
    },
    {
      "type": "Feature",
      "geometry": {
        "type": "Point",
        "coordinates": [
          129.117808,
          35.153039
        ]
      },
      "properties": {
        "s_code": "1097",
        "s_name": "광안비치",
        "gugun_code": "0512",
        "addr": "부산광역시 수영구 광안동 193-4 부산광안대우아이빌 101호 201호 202호 203호",
        "doro_address": "부산광역시 수영구 광안로62번길 39 (광안동)",
        "open_dt": "20160726"
      }
    },
    {
      "type": "Feature",
      "geometry": {
        "type": "Point",
        "coordinates": [
          129.028601,
          35.102783
        ]
      },
      "properties": {
        "s_code": "1249",
        "s_name": "국제시장",
        "gugun_code": "0510",
        "addr": "부산광역시 중구 대청동3가 20",
        "doro_address": "부산광역시 중구 대청로 80 (대청동3가)",
        "open_dt": "20170726"
      }
    },
    {
      "type": "Feature",
      "geometry": {
        "type": "Point",
        "coordinates": [
          129.1105,
          35.14717
        ]
      },
      "properties": {
        "s_code": "1180",
        "s_name": "금련산역",
        "gugun_code": "0512",
        "addr": "부산광역시 수영구 남천동 29-19 목원빌딩",
        "doro_address": "부산광역시 수영구 수영로464번길 6 (남천동)",
        "open_dt": "20170228"
      }
    },
    {
      "type": "Feature",
      "geometry": {
        "type": "Point",
        "coordinates": [
          129.0359604,
          35.1050552
        ]
      },
      "properties": {
        "s_code": "823",
        "s_name": "부산중앙역",
        "gugun_code": "0510",
        "addr": "부산광역시 중구 중앙동4가 53-6, 53-30",
        "doro_address": "부산광역시 중구 중앙대로81번길 2 (중앙동4가)",
        "open_dt": "20140825"
      }
    },
    {
      "type": "Feature",
      "geometry": {
        "type": "Point",
        "coordinates": [
          129.1141711,
          35.14830649
        ]
      },
      "properties": {
        "s_code": "107",
        "s_name": "남천",
        "gugun_code": "0512",
        "addr": "부산광역시 수영구 남천동 3-35",
        "doro_address": "부산광역시 수영구 남천바다로 38 (남천동)",
        "open_dt": "20071227"
      }
    },
    {
      "type": "Feature",
      "geometry": {
        "type": "Point",
        "coordinates": [
          129.031055,
          35.10191
        ]
      },
      "properties": {
        "s_code": "483",
        "s_name": "광복중앙로",
        "gugun_code": "0510",
        "addr": "부산광역시 중구 대청동2가 34-1",
        "doro_address": "부산광역시 중구 광복중앙로 28-1 (대청동2가)",
        "open_dt": "20120224"
      }
    },
    {
      "type": "Feature",
      "geometry": {
        "type": "Point",
        "coordinates": [
          129.093041,
          35.135032
        ]
      },
      "properties": {
        "s_code": "683",
        "s_name": "부산대연역",
        "gugun_code": "0502",
        "addr": "부산광역시 남구 대연동 1740-1 1층",
        "doro_address": "부산광역시 남구 수영로 240-1, 1층 (대연동)",
        "open_dt": "20131031"
      }
    },
    {
      "type": "Feature",
      "geometry": {
        "type": "Point",
        "coordinates": [
          129.02805280000007,
          35.0989623
        ]
      },
      "properties": {
        "s_code": "38",
        "s_name": "BIFF광장",
        "gugun_code": "0510",
        "addr": "부산광역시 중구 남포동3가 1-3",
        "doro_address": "부산광역시 중구 비프광장로 25 (남포동3가)",
        "open_dt": "20060531"
      }
    },
    {
      "type": "Feature",
      "geometry": {
        "type": "Point",
        "coordinates": [
          129.104247,
          35.140143
        ]
      },
      "properties": {
        "s_code": "881",
        "s_name": "대연힐스테이트",
        "gugun_code": "0502",
        "addr": "부산광역시 남구 대연동 1858",
        "doro_address": "부산광역시 남구 수영로 345 대연힐스테이트 115동 121호",
        "open_dt": "20150113"
      }
    },
    {
      "type": "Feature",
      "geometry": {
        "type": "Point",
        "coordinates": [
          129.029716,
          35.098378
        ]
      },
      "properties": {
        "s_code": "1185",
        "s_name": "자갈치역",
        "gugun_code": "0510",
        "addr": "부산광역시 중구 남포동5가 8-1",
        "doro_address": "부산광역시 중구 구덕로 54-1 (남포동5가)",
        "open_dt": "20170316"
      }
    },
    {
      "type": "Feature",
      "geometry": {
        "type": "Point",
        "coordinates": [
          129.1009316,
          35.13742382
        ]
      },
      "properties": {
        "s_code": "248",
        "s_name": "경성대",
        "gugun_code": "0502",
        "addr": "부산광역시 남구 대연동 55-1",
        "doro_address": "부산광역시 남구 수영로 312 (대연동)",
        "open_dt": "20040716"
      }
    },
    {
      "type": "Feature",
      "geometry": {
        "type": "Point",
        "coordinates": [
          129.035151,
          35.098311
        ]
      },
      "properties": {
        "s_code": "378",
        "s_name": "남포동역",
        "gugun_code": "0510",
        "addr": "부산광역시 중구 광복동1가 40-2번지 1~2층",
        "doro_address": "부산광역시 중구 구덕로 4, 1~2층 (광복동1가)",
        "open_dt": "20110329"
      }
    },
    {
      "type": "Feature",
      "geometry": {
        "type": "Point",
        "coordinates": [
          129.1434,
          35.15697
        ]
      },
      "properties": {
        "s_code": "530",
        "s_name": "신세계마린시티",
        "gugun_code": "0516",
        "addr": "부산광역시 해운대구 우동 1408",
        "doro_address": "부산광역시 해운대구 마린시티2로 38 (우동)",
        "open_dt": "20120629"
      }
    },
    {
      "type": "Feature",
      "geometry": {
        "type": "Point",
        "coordinates": [
          129.144091,
          35.156657
        ]
      },
      "properties": {
        "s_code": "496",
        "s_name": "제니스스퀘어",
        "gugun_code": "0516",
        "addr": "부산광역시 해운대구 우동 1407 제니스스퀘어",
        "doro_address": "부산광역시 해운대구 마린시티2로 33, 제니스스퀘어 (우동)",
        "open_dt": "20120328"
      }
    },
    {
      "type": "Feature",
      "geometry": {
        "type": "Point",
        "coordinates": [
          129.150525,
          35.15858833
        ]
      },
      "properties": {
        "s_code": "14",
        "s_name": "베네시티",
        "gugun_code": "0516",
        "addr": "부산광역시 해운대구 우동 1432",
        "doro_address": "부산광역시 해운대구 해운대해변로 163 (우동)",
        "open_dt": "20060324"
      }
    },
    {
      "type": "Feature",
      "geometry": {
        "type": "Point",
        "coordinates": [
          129.159547,
          35.163246
        ]
      },
      "properties": {
        "s_code": "1275",
        "s_name": "해운대역",
        "gugun_code": "0516",
        "addr": "부산광역시 해운대구 우동 603-19",
        "doro_address": "부산광역시 해운대구 구남로 9 (우동)",
        "open_dt": "20170927"
      }
    },
    {
      "type": "Feature",
      "geometry": {
        "type": "Point",
        "coordinates": [
          129.1755924,
          35.17229566
        ]
      },
      "properties": {
        "s_code": "44",
        "s_name": "블루스퀘어",
        "gugun_code": "0516",
        "addr": "부산광역시 해운대구 좌동 1461-3번지",
        "doro_address": "부산광역시 해운대구 좌동로 96 (좌동)",
        "open_dt": "20081217"
      }
    },
    {
      "type": "Feature",
      "geometry": {
        "type": "Point",
        "coordinates": [
          129.167397,
          35.166029
        ]
      },
      "properties": {
        "s_code": "504",
        "s_name": "해운대이마트",
        "gugun_code": "0516",
        "addr": "부산광역시 해운대구 중1동 1767 해운대이마트 1층",
        "doro_address": "부산광역시 해운대구 좌동순환로 511, 해운대이마트 1층 (중동)",
        "open_dt": "20120418"
      }
    },
    {
      "type": "Feature",
      "geometry": {
        "type": "Point",
        "coordinates": [
          129.1595078,
          35.15967926
        ]
      },
      "properties": {
        "s_code": "162",
        "s_name": "하버타운",
        "gugun_code": "0516",
        "addr": "부산광역시 해운대구 우동   ~ 627-1 하버타운",
        "doro_address": "부산광역시 해운대구 해운대해변로 257, 엘지하버타운 (우동)",
        "open_dt": "20010517"
      }
    },
    {
      "type": "Feature",
      "geometry": {
        "type": "Point",
        "coordinates": [
          129.1766584,
          35.16914054
        ]
      },
      "properties": {
        "s_code": "239",
        "s_name": "장산역",
        "gugun_code": "0516",
        "addr": "부산광역시 해운대구 좌동 1479-1",
        "doro_address": "부산광역시 해운대구 해운대로 802 (좌동)",
        "open_dt": "20050923"
      }
    },
    {
      "type": "Feature",
      "geometry": {
        "type": "Point",
        "coordinates": [
          129.162124,
          35.159965
        ]
      },
      "properties": {
        "s_code": "1056",
        "s_name": "해운대",
        "gugun_code": "0516",
        "addr": "부산광역시 해운대구 중동 1392-26 엘리시아",
        "doro_address": "부산광역시 해운대구 구남로 49 (중동) 101호",
        "open_dt": "20160419"
      }
    },
    {
      "type": "Feature",
      "geometry": {
        "type": "Point",
        "coordinates": [
          129.099223,
          35.123153
        ]
      },
      "properties": {
        "s_code": "1190",
        "s_name": "동명대DT",
        "gugun_code": "0502",
        "addr": "부산광역시 남구 용당동 532-26",
        "doro_address": "부산광역시 남구 신선로 423 (용당동)",
        "open_dt": "20170330"
      }
    },
    {
      "type": "Feature",
      "geometry": {
        "type": "Point",
        "coordinates": [
          129.1665774,
          35.1601225
        ]
      },
      "properties": {
        "s_code": "104",
        "s_name": "팔래드시즈",
        "gugun_code": "0516",
        "addr": "부산광역시 해운대구 중동 1124-2 팔래드시즈 1-3호, 2-3호",
        "doro_address": "부산광역시 해운대구 해운대해변로298번길 24, 팔래드시즈 1-3호, 2-3호 (중동)",
        "open_dt": "20080728"
      }
    },
    {
      "type": "Feature",
      "geometry": {
        "type": "Point",
        "coordinates": [
          129.20227690000002,
          35.1807279
        ]
      },
      "properties": {
        "s_code": "648",
        "s_name": "부산송정비치",
        "gugun_code": "0516",
        "addr": "부산광역시 해운대구 송정동 297-31 외 1필지",
        "doro_address": "부산광역시 해운대구 송정해변로 36 (송정동)",
        "open_dt": "20130809"
      }
    },
    {
      "type": "Feature",
      "geometry": {
        "type": "Point",
        "coordinates": [
          128.964196,
          35.048935
        ]
      },
      "properties": {
        "s_code": "566",
        "s_name": "부산다대포",
        "gugun_code": "0507",
        "addr": "부산광역시 사하구 다대동 1548-39번지",
        "doro_address": "부산광역시 사하구 다대로 708 (다대동)",
        "open_dt": "20121115"
      }
    },
    {
      "type": "Feature",
      "geometry": {
        "type": "Point",
        "coordinates": [
          129.016603,
          35.076137
        ]
      },
      "properties": {
        "s_code": "637",
        "s_name": "부산송도비치",
        "gugun_code": "0515",
        "addr": "부산광역시 서구 암남동 355-17번지",
        "doro_address": "부산광역시 서구 송도해변로 81 (암남동)",
        "open_dt": "20130710"
      }
    },
    {
      "type": "Feature",
      "geometry": {
        "type": "Point",
        "coordinates": [
          129.1710436,
          35.1615043
        ]
      },
      "properties": {
        "s_code": "817",
        "s_name": "해운대달맞이DT",
        "gugun_code": "0516",
        "addr": "부산광역시 해운대구 중동 1779",
        "doro_address": "부산광역시 해운대구 달맞이길 57 (중동) 1~3층",
        "open_dt": "20140808"
      }
    },
    {
      "type": "Feature",
      "geometry": {
        "type": "Point",
        "coordinates": [
          129.210875,
          35.184073
        ]
      },
      "properties": {
        "s_code": "1100",
        "s_name": "동부산DT",
        "gugun_code": "0511",
        "addr": "부산광역시 기장군 기장읍 시랑리 589-6",
        "doro_address": "부산광역시 기장군 기장읍 기장해안로 56 ",
        "open_dt": "20160818"
      }
    },
    {
      "type": "Feature",
      "geometry": {
        "type": "Point",
        "coordinates": [
          129.182307,
          35.157925
        ]
      },
      "properties": {
        "s_code": "769",
        "s_name": "해운대달맞이",
        "gugun_code": "0516",
        "addr": "부산광역시 해운대구 중동 1490-1 외 1필지",
        "doro_address": "부산광역시 해운대구 달맞이길 189 (중동)",
        "open_dt": "20140429"
      }
    },
    {
      "type": "Feature",
      "geometry": {
        "type": "Point",
        "coordinates": [
          127.423272,
          36.716466
        ]
      },
      "properties": {
        "s_code": "621",
        "s_name": "오창과학단지",
        "gugun_code": "1514",
        "addr": "충청북도 청주시 청원구 오창읍 양청리 752-1",
        "doro_address": "충청북도 청주시 청원구 과학산업2로 385 (오창읍)",
        "open_dt": "20130523"
      }
    },
    {
      "type": "Feature",
      "geometry": {
        "type": "Point",
        "coordinates": [
          127.427283,
          36.712751
        ]
      },
      "properties": {
        "s_code": "1134",
        "s_name": "오창호수공원",
        "gugun_code": "1514",
        "addr": "충청북도 청주시 청원구 오창읍 양청리 820-2",
        "doro_address": "충청북도 청주시 청원구 오창읍 중심상업1로 20 101,102,103,104호",
        "open_dt": "20161116"
      }
    },
    {
      "type": "Feature",
      "geometry": {
        "type": "Point",
        "coordinates": [
          127.939889,
          36.982721
        ]
      },
      "properties": {
        "s_code": "603",
        "s_name": "충주연수",
        "gugun_code": "1508",
        "addr": "충청북도 충주시 연수동 1491번지",
        "doro_address": "충청북도 충주시 계명대로 227 (연수동)",
        "open_dt": "20130412"
      }
    },
    {
      "type": "Feature",
      "geometry": {
        "type": "Point",
        "coordinates": [
          127.933058,
          36.970581
        ]
      },
      "properties": {
        "s_code": "586",
        "s_name": "충주성서",
        "gugun_code": "1508",
        "addr": "충청북도 충주시 성서동 385",
        "doro_address": "충청북도 충주시 예성로 151-2 (성서동)",
        "open_dt": "20130131"
      }
    },
    {
      "type": "Feature",
      "geometry": {
        "type": "Point",
        "coordinates": [
          127.426305,
          36.644407
        ]
      },
      "properties": {
        "s_code": "542",
        "s_name": "현대충청",
        "gugun_code": "1512",
        "addr": "충청북도 청주시 흥덕구 복대동 3380",
        "doro_address": "충청북도 청주시 흥덕구 직지대로 308 (복대동)",
        "open_dt": "20120822"
      }
    },
    {
      "type": "Feature",
      "geometry": {
        "type": "Point",
        "coordinates": [
          127.493207,
          36.66623
        ]
      },
      "properties": {
        "s_code": "995",
        "s_name": "청주율량DT",
        "gugun_code": "1514",
        "addr": "충청북도 청주시 청원구 율량동 1068",
        "doro_address": "충청북도 청주시 청원구 충청대로107번길 8 (율량동)",
        "open_dt": "20151022"
      }
    },
    {
      "type": "Feature",
      "geometry": {
        "type": "Point",
        "coordinates": [
          127.427107,
          36.643359
        ]
      },
      "properties": {
        "s_code": "356",
        "s_name": "청주지웰시티",
        "gugun_code": "1512",
        "addr": "충청북도 청주시 흥덕구 복대동 3379 신영지웰시티 1차 상업시설",
        "doro_address": "충청북도 청주시 흥덕구 대농로 43 (복대동) 신영지웰시티 1차 상업시설",
        "open_dt": "20101208"
      }
    },
    {
      "type": "Feature",
      "geometry": {
        "type": "Point",
        "coordinates": [
          127.464772,
          36.646765
        ]
      },
      "properties": {
        "s_code": "1059",
        "s_name": "청주봉명DT",
        "gugun_code": "1512",
        "addr": "충청북도 청주시 흥덕구 봉명동 1404 SK주유소",
        "doro_address": "충청북도 청주시 흥덕구 1순환로 514 (봉명동)",
        "open_dt": "20160429"
      }
    },
    {
      "type": "Feature",
      "geometry": {
        "type": "Point",
        "coordinates": [
          127.432035,
          36.626769
        ]
      },
      "properties": {
        "s_code": "409",
        "s_name": "청주터미널",
        "gugun_code": "1512",
        "addr": "충청북도 청주시 흥덕구 가경동 1416-2 번지",
        "doro_address": "충청북도 청주시 흥덕구 풍산로 15 (가경동)",
        "open_dt": "20110720"
      }
    },
    {
      "type": "Feature",
      "geometry": {
        "type": "Point",
        "coordinates": [
          127.430108,
          36.625422
        ]
      },
      "properties": {
        "s_code": "755",
        "s_name": "청주강서",
        "gugun_code": "1512",
        "addr": "충청북도 청주시 흥덕구 강서동 478",
        "doro_address": "충청북도 청주시 흥덕구 강서로 121 (강서동)",
        "open_dt": "20140328"
      }
    },
    {
      "type": "Feature",
      "geometry": {
        "type": "Point",
        "coordinates": [
          127.459715,
          36.633965
        ]
      },
      "properties": {
        "s_code": "563",
        "s_name": "충북대",
        "gugun_code": "1513",
        "addr": "충청북도 청주시 서원구 사창동 155-9",
        "doro_address": "충청북도 청주시 서원구 내수동로 113 (사창동)",
        "open_dt": "20121030"
      }
    },
    {
      "type": "Feature",
      "geometry": {
        "type": "Point",
        "coordinates": [
          127.486041,
          36.635373
        ]
      },
      "properties": {
        "s_code": "526",
        "s_name": "청주서문",
        "gugun_code": "1507",
        "addr": "충청북도 청주시 상당구 서문동 150-2번지",
        "doro_address": "충청북도 청주시 상당구 무심동로392번길 20 (서문동)",
        "open_dt": "20120622"
      }
    },
    {
      "type": "Feature",
      "geometry": {
        "type": "Point",
        "coordinates": [
          127.44608549999998,
          36.6176114
        ]
      },
      "properties": {
        "s_code": "983",
        "s_name": "청주성화",
        "gugun_code": "1513",
        "addr": "충청북도 청주시 서원구 개신동 702",
        "doro_address": "충청북도 청주시 서원구 복대로 5 (개신동)",
        "open_dt": "20150923"
      }
    },
    {
      "type": "Feature",
      "geometry": {
        "type": "Point",
        "coordinates": [
          126.638986,
          36.891205
        ]
      },
      "properties": {
        "s_code": "694",
        "s_name": "당진문예의전당",
        "gugun_code": "1415",
        "addr": "충청남도 당진군 당진읍 읍내리 1057 1층",
        "doro_address": "충청남도 당진시 시청1로 78, 1층 (읍내동)",
        "open_dt": "20131129"
      }
    },
    {
      "type": "Feature",
      "geometry": {
        "type": "Point",
        "coordinates": [
          127.134838,
          36.833981
        ]
      },
      "properties": {
        "s_code": "492",
        "s_name": "천안두정",
        "gugun_code": "1410",
        "addr": "충청남도 천안시 서북구 두정동 975-1",
        "doro_address": "충청남도 천안시 서북구 부성4길 3 (부성1동)",
        "open_dt": "20120322"
      }
    },
    {
      "type": "Feature",
      "geometry": {
        "type": "Point",
        "coordinates": [
          127.1403512,
          36.8253941
        ]
      },
      "properties": {
        "s_code": "875",
        "s_name": "천안성정DT",
        "gugun_code": "1410",
        "addr": "충청남도 천안시 서북구 성정동 625-3",
        "doro_address": "충청남도 천안시 서북구 동서대로 154 (성정동)",
        "open_dt": "20141223"
      }
    },
    {
      "type": "Feature",
      "geometry": {
        "type": "Point",
        "coordinates": [
          127.179779,
          36.830087
        ]
      },
      "properties": {
        "s_code": "1202",
        "s_name": "천안안서",
        "gugun_code": "1409",
        "addr": "충청남도 천안시 동남구 안서동 231-3",
        "doro_address": "충청남도 천안시 동남구 안서3길 3 (안서동)",
        "open_dt": "20170412"
      }
    },
    {
      "type": "Feature",
      "geometry": {
        "type": "Point",
        "coordinates": [
          127.1529981,
          36.81917993
        ]
      },
      "properties": {
        "s_code": "130",
        "s_name": "천안신부동",
        "gugun_code": "1409",
        "addr": "충청남도 천안시 동남구 신부동 966 천안신부동 더샵상가 111호",
        "doro_address": "충청남도 천안시 동남구 만남로 9 (신안동)",
        "open_dt": "20080331"
      }
    },
    {
      "type": "Feature",
      "geometry": {
        "type": "Point",
        "coordinates": [
          127.1615,
          36.82025
        ]
      },
      "properties": {
        "s_code": "1107",
        "s_name": "천안IC DT",
        "gugun_code": "1409",
        "addr": "충청남도 천안시 동남구 신부동 495-1",
        "doro_address": "충청남도 천안시 동남구 신부15길 3 (신부동)",
        "open_dt": "20160909"
      }
    },
    {
      "type": "Feature",
      "geometry": {
        "type": "Point",
        "coordinates": [
          127.156459,
          36.819515
        ]
      },
      "properties": {
        "s_code": "494",
        "s_name": "천안터미널",
        "gugun_code": "1409",
        "addr": "충청남도 천안시 동남구 신부동 363-2 신세계백화점충청점 B동 L층",
        "doro_address": "충청남도 천안시 동남구 만남로 43 (신부동) 신세계백화점충청점 B동 L층",
        "open_dt": "20120328"
      }
    },
    {
      "type": "Feature",
      "geometry": {
        "type": "Point",
        "coordinates": [
          127.108287,
          36.812323
        ]
      },
      "properties": {
        "s_code": "1174",
        "s_name": "천안신불당",
        "gugun_code": "1410",
        "addr": "충청남도 천안시 서북구 불당동 1618",
        "doro_address": "충청남도 천안시 서북구 불당33길 24 (불당동)",
        "open_dt": "20170223"
      }
    },
    {
      "type": "Feature",
      "geometry": {
        "type": "Point",
        "coordinates": [
          127.1109606,
          36.8100104
        ]
      },
      "properties": {
        "s_code": "902",
        "s_name": "천안불당",
        "gugun_code": "1410",
        "addr": "충청남도 천안시 서북구 불당동 739",
        "doro_address": "충청남도 천안시 서북구 불당4로 91 (불당동)",
        "open_dt": "20150324"
      }
    },
    {
      "type": "Feature",
      "geometry": {
        "type": "Point",
        "coordinates": [
          127.058333,
          36.798663
        ]
      },
      "properties": {
        "s_code": "1250",
        "s_name": "아산탕정",
        "gugun_code": "1416",
        "addr": "충청남도 아산시 탕정면 명암리 930-1",
        "doro_address": "충청남도 아산시 탕정면 탕정면로 10 ",
        "open_dt": "20170727"
      }
    },
    {
      "type": "Feature",
      "geometry": {
        "type": "Point",
        "coordinates": [
          127.127159,
          36.795879
        ]
      },
      "properties": {
        "s_code": "385",
        "s_name": "천안이마트",
        "gugun_code": "1410",
        "addr": "충청남도 천안시 서북구 쌍용동 191 천안이마트 1층",
        "doro_address": "충청남도 천안시 서북구 충무로 187 (쌍용동) 천안이마트 1층",
        "open_dt": "20110420"
      }
    },
    {
      "type": "Feature",
      "geometry": {
        "type": "Point",
        "coordinates": [
          127.12223,
          36.793123
        ]
      },
      "properties": {
        "s_code": "1242",
        "s_name": "천안쌍용역",
        "gugun_code": "1410",
        "addr": "충청남도 천안시 서북구 쌍용동 446-23 북일빌딩",
        "doro_address": "충청남도 천안시 서북구 충무로 133 (쌍용동)",
        "open_dt": "20170711"
      }
    },
    {
      "type": "Feature",
      "geometry": {
        "type": "Point",
        "coordinates": [
          127.0162904,
          36.783865
        ]
      },
      "properties": {
        "s_code": "979",
        "s_name": "아산터미널",
        "gugun_code": "1416",
        "addr": "충청남도 아산시 모종동 568-1 (1,2,3층)",
        "doro_address": "충청남도 아산시 번영로 232 (모종동)",
        "open_dt": "20150916"
      }
    },
    {
      "type": "Feature",
      "geometry": {
        "type": "Point",
        "coordinates": [
          127.008545,
          36.774397
        ]
      },
      "properties": {
        "s_code": "1169",
        "s_name": "아산용화",
        "gugun_code": "1416",
        "addr": "충청남도 아산시 용화동 1255",
        "doro_address": "충청남도 아산시 어의정로 117 (용화동)",
        "open_dt": "20170126"
      }
    },
    {
      "type": "Feature",
      "geometry": {
        "type": "Point",
        "coordinates": [
          126.448646,
          36.776653
        ]
      },
      "properties": {
        "s_code": "692",
        "s_name": "서산호수",
        "gugun_code": "1406",
        "addr": "충청남도 서산시 읍내동 38-5 1~2층",
        "doro_address": "충청남도 서산시 호수공원2로 33, 1~2층 (읍내동)",
        "open_dt": "20131121"
      }
    },
    {
      "type": "Feature",
      "geometry": {
        "type": "Point",
        "coordinates": [
          127.14003,
          36.474648
        ]
      },
      "properties": {
        "s_code": "749",
        "s_name": "공주신관",
        "gugun_code": "1401",
        "addr": "충청남도 공주시 신관동 265-17 1~2층",
        "doro_address": "충청남도 공주시 번영1로 113 (신관동)",
        "open_dt": "20140324"
      }
    },
    {
      "type": "Feature",
      "geometry": {
        "type": "Point",
        "coordinates": [
          127.244398,
          36.288381
        ]
      },
      "properties": {
        "s_code": "1269",
        "s_name": "계룡대로DT",
        "gugun_code": "1413",
        "addr": "충청남도 계룡시 엄사면 엄사리 284",
        "doro_address": "충청남도 계룡시 엄사면 번영로 6 ",
        "open_dt": "20170915"
      }
    },
    {
      "type": "Feature",
      "geometry": {
        "type": "Point",
        "coordinates": [
          127.0899058,
          36.2012496
        ]
      },
      "properties": {
        "s_code": "977",
        "s_name": "논산중앙",
        "gugun_code": "1403",
        "addr": "충청남도 논산시 취암동 1061-10",
        "doro_address": "충청남도 논산시 중앙로398번길 13-10",
        "open_dt": "20150911"
      }
    },
    {
      "type": "Feature",
      "geometry": {
        "type": "Point",
        "coordinates": [
          128.5604376,
          35.9425387
        ]
      },
      "properties": {
        "s_code": "884",
        "s_name": "대구동천",
        "gugun_code": "0307",
        "addr": "대구광역시 북구 동천동 908-2 1~3층",
        "doro_address": "대구광역시 북구 동천로 123",
        "open_dt": "20150120"
      }
    },
    {
      "type": "Feature",
      "geometry": {
        "type": "Point",
        "coordinates": [
          128.563879,
          35.942193
        ]
      },
      "properties": {
        "s_code": "656",
        "s_name": "대구칠곡점",
        "gugun_code": "0307",
        "addr": "구암동 769-1번지 태을빌딩 1층",
        "doro_address": "",
        "open_dt": "2013-08-29"
      }
    },
    {
      "type": "Feature",
      "geometry": {
        "type": "Point",
        "coordinates": [
          128.636347,
          35.9878685
        ]
      },
      "properties": {
        "s_code": "913",
        "s_name": "대구팔공산",
        "gugun_code": "0303",
        "addr": "대구광역시 동구 중대동 665-2, 665-5",
        "doro_address": "대구광역시 동구 파계로 650",
        "open_dt": "20150410"
      }
    },
    {
      "type": "Feature",
      "geometry": {
        "type": "Point",
        "coordinates": [
          128.547736,
          35.926583
        ]
      },
      "properties": {
        "s_code": "1061",
        "s_name": "대구칠곡대로DT",
        "gugun_code": "0307",
        "addr": "대구광역시 북구 태전동 1049-2",
        "doro_address": "대구광역시 북구 칠곡중앙대로 348 (태전동)",
        "open_dt": "20160428"
      }
    },
    {
      "type": "Feature",
      "geometry": {
        "type": "Point",
        "coordinates": [
          128.46460639999998,
          35.859284
        ]
      },
      "properties": {
        "s_code": "984",
        "s_name": "대구죽곡",
        "gugun_code": "0308",
        "addr": "대구광역시 달성군 다사읍 매곡리 1546-7",
        "doro_address": "대구광역시 달성군 달구벌대로 861 (다사읍)",
        "open_dt": "20151013"
      }
    },
    {
      "type": "Feature",
      "geometry": {
        "type": "Point",
        "coordinates": [
          128.4937254,
          35.85567272
        ]
      },
      "properties": {
        "s_code": "128",
        "s_name": "대구계명대",
        "gugun_code": "0302",
        "addr": "대구광역시 달서구 신당동 1721-12",
        "doro_address": "대구광역시 달서구 계대동문로 13 (신당동)",
        "open_dt": "20080331"
      }
    },
    {
      "type": "Feature",
      "geometry": {
        "type": "Point",
        "coordinates": [
          128.50411009999993,
          35.8551616
        ]
      },
      "properties": {
        "s_code": "1020",
        "s_name": "대구이곡",
        "gugun_code": "0302",
        "addr": "대구광역시 달서구 이곡동 1196-6",
        "doro_address": "대구광역시 달서구 계대동문로 108",
        "open_dt": "20151223"
      }
    },
    {
      "type": "Feature",
      "geometry": {
        "type": "Point",
        "coordinates": [
          128.510127,
          35.855292
        ]
      },
      "properties": {
        "s_code": "481",
        "s_name": "대구성서",
        "gugun_code": "0302",
        "addr": "대구광역시 달서구 이곡동 1248-1 이곡메디컬빌딩",
        "doro_address": "대구광역시 달서구 이곡공원로 26, 이곡메디컬빌딩 (이곡동)",
        "open_dt": "20120223"
      }
    },
    {
      "type": "Feature",
      "geometry": {
        "type": "Point",
        "coordinates": [
          128.52026039999998,
          35.8507998
        ]
      },
      "properties": {
        "s_code": "1004",
        "s_name": "대구성서IC DT",
        "gugun_code": "0302",
        "addr": "대구광역시 달서구 용산동 410-9, 12",
        "doro_address": "대구광역시 달서구 달구벌대로 1393",
        "open_dt": "20151119"
      }
    },
    {
      "type": "Feature",
      "geometry": {
        "type": "Point",
        "coordinates": [
          128.613347,
          35.905624
        ]
      },
      "properties": {
        "s_code": "1162",
        "s_name": "대구유통단지",
        "gugun_code": "0307",
        "addr": "대구광역시 북구 산격동 167",
        "doro_address": "대구광역시 북구 유통단지로8길 78 106호 (산격동)",
        "open_dt": "20161229"
      }
    },
    {
      "type": "Feature",
      "geometry": {
        "type": "Point",
        "coordinates": [
          128.639708,
          35.921942
        ]
      },
      "properties": {
        "s_code": "782",
        "s_name": "대구봉무",
        "gugun_code": "0303",
        "addr": "대구광역시 동구 봉무동 1539-8",
        "doro_address": "대구광역시 동구 팔공로51길 15-11  (봉무동)",
        "open_dt": "20140528"
      }
    },
    {
      "type": "Feature",
      "geometry": {
        "type": "Point",
        "coordinates": [
          128.555343,
          35.866138
        ]
      },
      "properties": {
        "s_code": "1019",
        "s_name": "대구평리DT",
        "gugun_code": "0304",
        "addr": "대구광역시 서구 평리동 1407-7",
        "doro_address": "대구광역시 서구 서대구로 89 (평리1동)",
        "open_dt": "20151222"
      }
    },
    {
      "type": "Feature",
      "geometry": {
        "type": "Point",
        "coordinates": [
          128.59183759999996,
          35.8874784
        ]
      },
      "properties": {
        "s_code": "759",
        "s_name": "대구침산DT",
        "gugun_code": "0307",
        "addr": "대구광역시 북구 침산동 245-1",
        "doro_address": "대구광역시 북구 침산로 126 (침산동)",
        "open_dt": "20140331"
      }
    },
    {
      "type": "Feature",
      "geometry": {
        "type": "Point",
        "coordinates": [
          128.608586,
          35.89232
        ]
      },
      "properties": {
        "s_code": "512",
        "s_name": "경북대",
        "gugun_code": "0307",
        "addr": "대구광역시 북구 산격동 1399-1",
        "doro_address": "대구광역시 북구 대학로 75 (산격동)",
        "open_dt": "20120430"
      }
    },
    {
      "type": "Feature",
      "geometry": {
        "type": "Point",
        "coordinates": [
          128.537915,
          35.849144
        ]
      },
      "properties": {
        "s_code": "369",
        "s_name": "대구알리앙스",
        "gugun_code": "0302",
        "addr": "대구광역시 달서구 감삼동 141-5",
        "doro_address": "대구광역시 달서구 와룡로 190 (감삼동)",
        "open_dt": "20110311"
      }
    },
    {
      "type": "Feature",
      "geometry": {
        "type": "Point",
        "coordinates": [
          128.55654,
          35.858277
        ]
      },
      "properties": {
        "s_code": "446",
        "s_name": "두류역",
        "gugun_code": "0304",
        "addr": "대구광역시 서구 내당동 DBS TOWER 469-9번지",
        "doro_address": "대구광역시 서구 서대구로 3 (내당동)",
        "open_dt": "20111031"
      }
    },
    {
      "type": "Feature",
      "geometry": {
        "type": "Point",
        "coordinates": [
          128.5366553,
          35.8443842
        ]
      },
      "properties": {
        "s_code": "947",
        "s_name": "대구감삼DT",
        "gugun_code": "0302",
        "addr": "대구광역시 달서구 감삼동 490-1",
        "doro_address": "대구광역시 달서구 와룡로 131 ",
        "open_dt": "20150629"
      }
    },
    {
      "type": "Feature",
      "geometry": {
        "type": "Point",
        "coordinates": [
          128.561685,
          35.858804
        ]
      },
      "properties": {
        "s_code": "870",
        "s_name": "대구두류DT",
        "gugun_code": "0302",
        "addr": "대구광역시 달서구 두류동 135-14,15",
        "doro_address": "대구광역시 달서구 달구벌대로 1798 (두류동)",
        "open_dt": "20141218"
      }
    },
    {
      "type": "Feature",
      "geometry": {
        "type": "Point",
        "coordinates": [
          128.594374,
          35.870674
        ]
      },
      "properties": {
        "s_code": "1155",
        "s_name": "대구중앙로역",
        "gugun_code": "0306",
        "addr": "대구광역시 중구 남일동 36-1 미도빌딩 103호",
        "doro_address": "대구광역시 중구 국채보상로 582 (남일동)",
        "open_dt": "20161223"
      }
    },
    {
      "type": "Feature",
      "geometry": {
        "type": "Point",
        "coordinates": [
          128.589696,
          35.866429
        ]
      },
      "properties": {
        "s_code": "1209",
        "s_name": "대구계산",
        "gugun_code": "0306",
        "addr": "대구광역시 중구 계산동2가 180",
        "doro_address": "대구광역시 중구 달구벌대로415길 1 (계산동2가)",
        "open_dt": "20170427"
      }
    },
    {
      "type": "Feature",
      "geometry": {
        "type": "Point",
        "coordinates": [
          128.593375,
          35.867317
        ]
      },
      "properties": {
        "s_code": "623",
        "s_name": "대구중앙로",
        "gugun_code": "0306",
        "addr": "대구광역시 중구 동성로3가 35-13번지",
        "doro_address": "대구광역시 중구 남성로 61 (동성로3가)",
        "open_dt": "20130531"
      }
    },
    {
      "type": "Feature",
      "geometry": {
        "type": "Point",
        "coordinates": [
          128.5918695,
          35.86616318
        ]
      },
      "properties": {
        "s_code": "182",
        "s_name": "반월당",
        "gugun_code": "0306",
        "addr": "대구광역시 중구 덕산동 53-3 동아쇼핑(동아쇼핑센터건물)",
        "doro_address": "대구광역시 중구 달구벌대로 2085 (덕산동) 동아쇼핑",
        "open_dt": "20020427"
      }
    },
    {
      "type": "Feature",
      "geometry": {
        "type": "Point",
        "coordinates": [
          128.594217,
          35.867319
        ]
      },
      "properties": {
        "s_code": "520",
        "s_name": "동성로광장",
        "gugun_code": "0306",
        "addr": "대구광역시 중구 동성로3가 91-16,18번지",
        "doro_address": "대구광역시 중구 동성로 4 (동성로3가)",
        "open_dt": "20120525"
      }
    },
    {
      "type": "Feature",
      "geometry": {
        "type": "Point",
        "coordinates": [
          128.59666,
          35.867556
        ]
      },
      "properties": {
        "s_code": "348",
        "s_name": "동성로중앙",
        "gugun_code": "0306",
        "addr": "대구광역시 중구 삼덕동1가 17-3번지",
        "doro_address": "대구광역시 중구 동성로5길 38 (삼덕동1가)",
        "open_dt": "20101029"
      }
    },
    {
      "type": "Feature",
      "geometry": {
        "type": "Point",
        "coordinates": [
          128.6006466,
          35.8691866
        ]
      },
      "properties": {
        "s_code": "837",
        "s_name": "대구공평DT",
        "gugun_code": "0306",
        "addr": "대구광역시 중구 동인동2가 25-1 1~2층",
        "doro_address": "대구광역시 중구 국채보상로 642 (동인동2가)",
        "open_dt": "20140929"
      }
    },
    {
      "type": "Feature",
      "geometry": {
        "type": "Point",
        "coordinates": [
          128.597862,
          35.86723
        ]
      },
      "properties": {
        "s_code": "511",
        "s_name": "동성로로데오",
        "gugun_code": "0306",
        "addr": "대구광역시 중구 삼덕동1가 25-1",
        "doro_address": "대구광역시 중구 동성로5길 62 (삼덕동1가)",
        "open_dt": "20120427"
      }
    },
    {
      "type": "Feature",
      "geometry": {
        "type": "Point",
        "coordinates": [
          128.525418,
          35.824362
        ]
      },
      "properties": {
        "s_code": "1158",
        "s_name": "대구월성",
        "gugun_code": "0302",
        "addr": "대구광역시 달서구 월성동 1838번지, 101,102,103,201호",
        "doro_address": "대구광역시 달서구 조암로 41 (월성동)",
        "open_dt": "20161222"
      }
    },
    {
      "type": "Feature",
      "geometry": {
        "type": "Point",
        "coordinates": [
          128.556926,
          35.837881
        ]
      },
      "properties": {
        "s_code": "553",
        "s_name": "대구성당못역",
        "gugun_code": "0302",
        "addr": "대구광역시 달서구 성당동 성당동 261-7번지",
        "doro_address": "대구광역시 달서구 구마로 265 (성당동)",
        "open_dt": "20120918"
      }
    },
    {
      "type": "Feature",
      "geometry": {
        "type": "Point",
        "coordinates": [
          128.533771,
          35.822408
        ]
      },
      "properties": {
        "s_code": "848",
        "s_name": "대구상인DT",
        "gugun_code": "0302",
        "addr": "대구광역시 달서구 상인동 54-3 1~2층",
        "doro_address": "대구광역시 달서구 월곡로 334 (상인동)",
        "open_dt": "20141030"
      }
    },
    {
      "type": "Feature",
      "geometry": {
        "type": "Point",
        "coordinates": [
          128.628453,
          35.877812
        ]
      },
      "properties": {
        "s_code": "1144",
        "s_name": "신세계대구 8F(리저브)",
        "gugun_code": "0303",
        "addr": "대구광역시 동구 신천동 329-3번지",
        "doro_address": "대구광역시 동구 동부로 149 신세계백화점 대구점 8층",
        "open_dt": "20161213"
      }
    },
    {
      "type": "Feature",
      "geometry": {
        "type": "Point",
        "coordinates": [
          128.628498,
          35.877767
        ]
      },
      "properties": {
        "s_code": "1145",
        "s_name": "신세계대구 3F(티바나)",
        "gugun_code": "0303",
        "addr": "대구광역시 동구 신천동 329-3번지",
        "doro_address": "대구광역시 동구 동부로 149 신세계백화점 대구점 3층",
        "open_dt": "20161213"
      }
    },
    {
      "type": "Feature",
      "geometry": {
        "type": "Point",
        "coordinates": [
          128.62859,
          35.876315
        ]
      },
      "properties": {
        "s_code": "417",
        "s_name": "동대구터미널",
        "gugun_code": "0303",
        "addr": "대구광역시 동구 신천동 330-6번지",
        "doro_address": "대구광역시 동구 동부로30길 12 (신천동)",
        "open_dt": "20110816"
      }
    },
    {
      "type": "Feature",
      "geometry": {
        "type": "Point",
        "coordinates": [
          128.524377,
          35.814395
        ]
      },
      "properties": {
        "s_code": "1201",
        "s_name": "대구진천역",
        "gugun_code": "0302",
        "addr": "대구광역시 달서구 진천동 581-1",
        "doro_address": "대구광역시 달서구 월배로 91 (진천동)",
        "open_dt": "20170412"
      }
    },
    {
      "type": "Feature",
      "geometry": {
        "type": "Point",
        "coordinates": [
          128.53656920000003,
          35.8182768
        ]
      },
      "properties": {
        "s_code": "962",
        "s_name": "대구상인역",
        "gugun_code": "0302",
        "addr": "대구광역시 달서구 상인동 228-6",
        "doro_address": "대구광역시 달서구 월배로 210 (상인동)",
        "open_dt": "20150729"
      }
    },
    {
      "type": "Feature",
      "geometry": {
        "type": "Point",
        "coordinates": [
          128.520278,
          35.807237
        ]
      },
      "properties": {
        "s_code": "1041",
        "s_name": "대구수목원",
        "gugun_code": "0302",
        "addr": "대구광역시 달서구 대곡동 1018",
        "doro_address": "대구광역시 달서구 화암로 379",
        "open_dt": "20160225"
      }
    },
    {
      "type": "Feature",
      "geometry": {
        "type": "Point",
        "coordinates": [
          128.61352710000006,
          35.8609096
        ]
      },
      "properties": {
        "s_code": "669",
        "s_name": "대구수성하이츠",
        "gugun_code": "0305",
        "addr": "대구광역시 수성구 수성동4가 1090-8 수성하이츠 1층",
        "doro_address": "대구광역시 수성구 수성로 393, 수성하이츠 1층 (수성동4가)",
        "open_dt": "20130930"
      }
    },
    {
      "type": "Feature",
      "geometry": {
        "type": "Point",
        "coordinates": [
          128.62715890000004,
          35.8680868
        ]
      },
      "properties": {
        "s_code": "1034",
        "s_name": "동대구로DT",
        "gugun_code": "0303",
        "addr": "대구광역시 동구 신천동 300-2",
        "doro_address": "대구광역시 동구 동대구로 422 (신천동)",
        "open_dt": "20160205"
      }
    },
    {
      "type": "Feature",
      "geometry": {
        "type": "Point",
        "coordinates": [
          128.62626260000002,
          35.8661924
        ]
      },
      "properties": {
        "s_code": "969",
        "s_name": "대구삼성화재",
        "gugun_code": "0305",
        "addr": "대구광역시 수성구 범어동 2-1 삼성화재사옥(삼성화재빌딩)",
        "doro_address": "대구광역시 수성구 동대구로 401 (범어동) 삼성화재사옥",
        "open_dt": "20150911"
      }
    },
    {
      "type": "Feature",
      "geometry": {
        "type": "Point",
        "coordinates": [
          128.617977,
          35.86058
        ]
      },
      "properties": {
        "s_code": "1221",
        "s_name": "대구수성네거리DT",
        "gugun_code": "0305",
        "addr": "대구광역시 수성구 수성동4가 1021-8",
        "doro_address": "대구광역시 수성구 들안로 342 (수성동4가)",
        "open_dt": "20170614"
      }
    },
    {
      "type": "Feature",
      "geometry": {
        "type": "Point",
        "coordinates": [
          128.62738279999996,
          35.8641739
        ]
      },
      "properties": {
        "s_code": "688",
        "s_name": "대구법원",
        "gugun_code": "0305",
        "addr": "대구광역시 수성구 범어동 45-32",
        "doro_address": "대구광역시 수성구 동대구로 376 (범어동)",
        "open_dt": "20131112"
      }
    },
    {
      "type": "Feature",
      "geometry": {
        "type": "Point",
        "coordinates": [
          128.579907,
          35.835315
        ]
      },
      "properties": {
        "s_code": "474",
        "s_name": "대구앞산",
        "gugun_code": "0301",
        "addr": "대구광역시 남구 대명동 493-36",
        "doro_address": "대구광역시 남구 현충로 30 (대명동)",
        "open_dt": "20120120"
      }
    },
    {
      "type": "Feature",
      "geometry": {
        "type": "Point",
        "coordinates": [
          128.653159,
          35.88011
        ]
      },
      "properties": {
        "s_code": "577",
        "s_name": "대구동촌유원지",
        "gugun_code": "0303",
        "addr": "대구광역시 동구 효목동 1105번지",
        "doro_address": "대구광역시 동구 효동로2길 45 (효목동)",
        "open_dt": "20130111"
      }
    },
    {
      "type": "Feature",
      "geometry": {
        "type": "Point",
        "coordinates": [
          128.623405,
          35.858985
        ]
      },
      "properties": {
        "s_code": "421",
        "s_name": "수성범어역",
        "gugun_code": "0305",
        "addr": "대구광역시 수성구 범어동 559-3 MJ CLUB",
        "doro_address": "대구광역시 수성구 달구벌대로 2386 (범어동) MJ CLUB",
        "open_dt": "20110826"
      }
    },
    {
      "type": "Feature",
      "geometry": {
        "type": "Point",
        "coordinates": [
          128.629687,
          35.859274
        ]
      },
      "properties": {
        "s_code": "544",
        "s_name": "대구범어제니스",
        "gugun_code": "0305",
        "addr": "대구광역시 수성구 범어동 179번지 두산위브더제니스 상가 1층 110호",
        "doro_address": "대구광역시 수성구 달구벌대로 2435, 두산위브더제니스아파트 상가 1층 110호 (범어동)",
        "open_dt": "20120829"
      }
    },
    {
      "type": "Feature",
      "geometry": {
        "type": "Point",
        "coordinates": [
          128.612529,
          35.847384
        ]
      },
      "properties": {
        "s_code": "1282",
        "s_name": "대구중동DT",
        "gugun_code": "0305",
        "addr": "대구광역시 수성구 중동 316-3",
        "doro_address": "대구광역시 수성구 수성로 243 (중동)",
        "open_dt": "20171018"
      }
    },
    {
      "type": "Feature",
      "geometry": {
        "type": "Point",
        "coordinates": [
          128.548117,
          35.807727
        ]
      },
      "properties": {
        "s_code": "1091",
        "s_name": "대구도원DT",
        "gugun_code": "0302",
        "addr": "대구광역시 달서구 도원동 577",
        "doro_address": "대구광역시 달서구 상화로 314 (도원동)",
        "open_dt": "20160708"
      }
    },
    {
      "type": "Feature",
      "geometry": {
        "type": "Point",
        "coordinates": [
          128.613963,
          35.840917
        ]
      },
      "properties": {
        "s_code": "1156",
        "s_name": "대구중동네거리DT",
        "gugun_code": "0305",
        "addr": "대구광역시 수성구 중동 184-4",
        "doro_address": "대구광역시 수성구 청수로 51 (중동)",
        "open_dt": "20161227"
      }
    },
    {
      "type": "Feature",
      "geometry": {
        "type": "Point",
        "coordinates": [
          128.6502,
          35.856431
        ]
      },
      "properties": {
        "s_code": "704",
        "s_name": "대구만촌DT",
        "gugun_code": "0305",
        "addr": "대구광역시 수성구 만촌동 853-3번지",
        "doro_address": "대구광역시 수성구 달구벌대로 2636, , 853-25번지 (만촌동)",
        "open_dt": "20131216"
      }
    },
    {
      "type": "Feature",
      "geometry": {
        "type": "Point",
        "coordinates": [
          128.62304229999995,
          35.83871
        ]
      },
      "properties": {
        "s_code": "410",
        "s_name": "수성리더스",
        "gugun_code": "0305",
        "addr": "대구광역시 수성구 두산동 113번지",
        "doro_address": "대구광역시 수성구 동대구로 95 (두산동)",
        "open_dt": "20110722"
      }
    },
    {
      "type": "Feature",
      "geometry": {
        "type": "Point",
        "coordinates": [
          128.625797,
          35.839069
        ]
      },
      "properties": {
        "s_code": "1060",
        "s_name": "대구황금DT",
        "gugun_code": "0305",
        "addr": "대구광역시 수성구 지산동 941",
        "doro_address": "대구광역시 수성구 청수로 164 (지산동)",
        "open_dt": "20160428"
      }
    },
    {
      "type": "Feature",
      "geometry": {
        "type": "Point",
        "coordinates": [
          128.6116932,
          35.8296424
        ]
      },
      "properties": {
        "s_code": "1023",
        "s_name": "대구상동DT",
        "gugun_code": "0305",
        "addr": "대구광역시 수성구 상동 415-1",
        "doro_address": "대구광역시 수성구 무학로 29(상동)",
        "open_dt": "20151222"
      }
    },
    {
      "type": "Feature",
      "geometry": {
        "type": "Point",
        "coordinates": [
          128.621814,
          35.825764
        ]
      },
      "properties": {
        "s_code": "418",
        "s_name": "수성레이크",
        "gugun_code": "0305",
        "addr": "대구광역시 수성구 두산동 840-1번지",
        "doro_address": "대구광역시 수성구 수성못길 4 (두산동)",
        "open_dt": "20110819"
      }
    },
    {
      "type": "Feature",
      "geometry": {
        "type": "Point",
        "coordinates": [
          128.6406389,
          35.82124651
        ]
      },
      "properties": {
        "s_code": "209",
        "s_name": "동아수성",
        "gugun_code": "0305",
        "addr": "대구광역시 수성구 범물동 1273 동아백화점 1,2 층",
        "doro_address": "대구광역시 수성구 지범로 191, 동아백화점수성점 1,2 층 (범물동)",
        "open_dt": "20030908"
      }
    },
    {
      "type": "Feature",
      "geometry": {
        "type": "Point",
        "coordinates": [
          128.727397,
          35.870899
        ]
      },
      "properties": {
        "s_code": "386",
        "s_name": "반야월이마트",
        "gugun_code": "0303",
        "addr": "대구광역시 동구 신서동 520-1 반야월이마트1층",
        "doro_address": "대구광역시 동구 안심로 389-2, 이마트 1층 (신서동)",
        "open_dt": "20110430"
      }
    },
    {
      "type": "Feature",
      "geometry": {
        "type": "Point",
        "coordinates": [
          128.7080427,
          35.8394934
        ]
      },
      "properties": {
        "s_code": "897",
        "s_name": "대구시지",
        "gugun_code": "0305",
        "addr": "대구광역시 수성구 신매동 567-43",
        "doro_address": "대구광역시 수성구 달구벌대로 3216 (신매동)",
        "open_dt": "20150217"
      }
    },
    {
      "type": "Feature",
      "geometry": {
        "type": "Point",
        "coordinates": [
          128.459251,
          35.693334
        ]
      },
      "properties": {
        "s_code": "1248",
        "s_name": "대구테크노폴리스",
        "gugun_code": "0308",
        "addr": "대구광역시 달성군 유가면 봉리 607-1",
        "doro_address": "대구광역시 달성군 유가면 테크노상업로 84 대경타워 105호, 106호, 107호",
        "open_dt": "20170728"
      }
    },
    {
      "type": "Feature",
      "geometry": {
        "type": "Point",
        "coordinates": [
          127.41998309999997,
          36.44866030000001
        ]
      },
      "properties": {
        "s_code": "1054",
        "s_name": "대전신탄진DT",
        "gugun_code": "0401",
        "addr": "대전광역시 대덕구 석봉동 309-10",
        "doro_address": "대전광역시 대덕구 대덕대로 1544 (석봉동)",
        "open_dt": "20160428"
      }
    },
    {
      "type": "Feature",
      "geometry": {
        "type": "Point",
        "coordinates": [
          127.389441,
          36.424826
        ]
      },
      "properties": {
        "s_code": "536",
        "s_name": "대전테크노밸리",
        "gugun_code": "0404",
        "addr": "대전광역시 유성구 관평동 937,938번지",
        "doro_address": "대전광역시 유성구 테크노4로 105 (관평동)",
        "open_dt": "20120731"
      }
    },
    {
      "type": "Feature",
      "geometry": {
        "type": "Point",
        "coordinates": [
          127.39263,
          36.4255141
        ]
      },
      "properties": {
        "s_code": "887",
        "s_name": "대전관평동",
        "gugun_code": "0404",
        "addr": "대전광역시 유성구 관평동 958 1~3층",
        "doro_address": "대전광역시 유성구 태크노중앙로 68",
        "open_dt": "20150122"
      }
    },
    {
      "type": "Feature",
      "geometry": {
        "type": "Point",
        "coordinates": [
          127.3175549,
          36.38720540000001
        ]
      },
      "properties": {
        "s_code": "1009",
        "s_name": "대전지족",
        "gugun_code": "0404",
        "addr": "대전광역시 유성구 지족동 984-5",
        "doro_address": "대전광역시 유성구 지족로 373 (지족동)",
        "open_dt": "20151127"
      }
    },
    {
      "type": "Feature",
      "geometry": {
        "type": "Point",
        "coordinates": [
          127.40052530000003,
          36.39943969999999
        ]
      },
      "properties": {
        "s_code": "981",
        "s_name": "대전전민",
        "gugun_code": "0404",
        "addr": "대전광역시 유성구 전민동 303-1 (1층)",
        "doro_address": "대전광역시 유성구 유성대로 1722 (전민동)",
        "open_dt": "20150923"
      }
    },
    {
      "type": "Feature",
      "geometry": {
        "type": "Point",
        "coordinates": [
          127.319446,
          36.373444
        ]
      },
      "properties": {
        "s_code": "693",
        "s_name": "대전노은",
        "gugun_code": "0404",
        "addr": "대전광역시 유성구 지족동 907-3 1~2층",
        "doro_address": "대전광역시 유성구 은구비남로33번길 26, 1~2층 (지족동)",
        "open_dt": "20131121"
      }
    },
    {
      "type": "Feature",
      "geometry": {
        "type": "Point",
        "coordinates": [
          127.3904691,
          36.3763115
        ]
      },
      "properties": {
        "s_code": "886",
        "s_name": "대전엑스포",
        "gugun_code": "0404",
        "addr": "대전광역시 유성구 도룡동 4-20",
        "doro_address": "대전광역시 유성구 엑스포로 97번길 40",
        "open_dt": "20150120"
      }
    },
    {
      "type": "Feature",
      "geometry": {
        "type": "Point",
        "coordinates": [
          127.336261,
          36.361969
        ]
      },
      "properties": {
        "s_code": "1240",
        "s_name": "대전장대",
        "gugun_code": "0404",
        "addr": "대전광역시 유성구 장대동 331-1",
        "doro_address": "대전광역시 유성구 유성대로 781 (장대동)",
        "open_dt": "20170713"
      }
    },
    {
      "type": "Feature",
      "geometry": {
        "type": "Point",
        "coordinates": [
          127.34464,
          36.36066
        ]
      },
      "properties": {
        "s_code": "774",
        "s_name": "충남대정문",
        "gugun_code": "0404",
        "addr": "대전광역시 유성구 궁동 482-7",
        "doro_address": "대전광역시 유성구 대학로 82 (궁동)",
        "open_dt": "20140515"
      }
    },
    {
      "type": "Feature",
      "geometry": {
        "type": "Point",
        "coordinates": [
          127.382002,
          36.367606
        ]
      },
      "properties": {
        "s_code": "855",
        "s_name": "대전만년",
        "gugun_code": "0403",
        "addr": "대전광역시 서구 만년동 333",
        "doro_address": "대전광역시 서구 만년로 81 (만년동)",
        "open_dt": "20141118"
      }
    },
    {
      "type": "Feature",
      "geometry": {
        "type": "Point",
        "coordinates": [
          127.357705,
          36.362206
        ]
      },
      "properties": {
        "s_code": "1175",
        "s_name": "대전유성구청",
        "gugun_code": "0404",
        "addr": "대전광역시 유성구 어은동 115-3",
        "doro_address": "대전광역시 유성구 어은로 42 (어은동)",
        "open_dt": "20170223"
      }
    },
    {
      "type": "Feature",
      "geometry": {
        "type": "Point",
        "coordinates": [
          127.3395544,
          36.3545222
        ]
      },
      "properties": {
        "s_code": "930",
        "s_name": "대전유성",
        "gugun_code": "0404",
        "addr": "대전광역시 유성구 봉명동 446-8, 446-9",
        "doro_address": "대전광역시 유성구 온천서로 2 (봉명동)",
        "open_dt": "20150526"
      }
    },
    {
      "type": "Feature",
      "geometry": {
        "type": "Point",
        "coordinates": [
          127.377288,
          36.361008
        ]
      },
      "properties": {
        "s_code": "611",
        "s_name": "대전월평",
        "gugun_code": "0403",
        "addr": "대전광역시 서구 월평동 279번지",
        "doro_address": "대전광역시 서구 청사로123번길 25 (월평동)",
        "open_dt": "20130430"
      }
    },
    {
      "type": "Feature",
      "geometry": {
        "type": "Point",
        "coordinates": [
          127.36299469999994,
          36.3576398
        ]
      },
      "properties": {
        "s_code": "406",
        "s_name": "월평트레이더스",
        "gugun_code": "0403",
        "addr": "대전광역시 서구 월평동 510",
        "doro_address": "대전광역시 서구 한밭대로 580 (월평동)",
        "open_dt": "20110708"
      }
    },
    {
      "type": "Feature",
      "geometry": {
        "type": "Point",
        "coordinates": [
          127.339981,
          36.351462
        ]
      },
      "properties": {
        "s_code": "1198",
        "s_name": "대전도안DT",
        "gugun_code": "0404",
        "addr": "대전광역시 유성구 봉명동 555-3",
        "doro_address": "대전광역시 유성구 도안대로 573 (봉명동)",
        "open_dt": "20170418"
      }
    },
    {
      "type": "Feature",
      "geometry": {
        "type": "Point",
        "coordinates": [
          127.387649,
          36.358982
        ]
      },
      "properties": {
        "s_code": "349",
        "s_name": "대전호텔",
        "gugun_code": "0403",
        "addr": "대전광역시 서구 둔산동 922번지 둔산관광호텔",
        "doro_address": "대전광역시 서구 둔산중로134번길 13, 둔산관광호텔 (둔산동)",
        "open_dt": "20101109"
      }
    },
    {
      "type": "Feature",
      "geometry": {
        "type": "Point",
        "coordinates": [
          127.377273,
          36.354233
        ]
      },
      "properties": {
        "s_code": "1082",
        "s_name": "대전둔산로",
        "gugun_code": "0403",
        "addr": "대전광역시 서구 둔산동 996",
        "doro_address": "대전광역시 서구 대덕대로241번길 35 (둔산동)",
        "open_dt": "20160624"
      }
    },
    {
      "type": "Feature",
      "geometry": {
        "type": "Point",
        "coordinates": [
          127.380591,
          36.353466
        ]
      },
      "properties": {
        "s_code": "827",
        "s_name": "대전대덕로",
        "gugun_code": "0403",
        "addr": "대전광역시 서구 둔산동 1355",
        "doro_address": "대전광역시 서구 대덕대로234번길 18 (둔산동)",
        "open_dt": "20140829"
      }
    },
    {
      "type": "Feature",
      "geometry": {
        "type": "Point",
        "coordinates": [
          127.3777879,
          36.3529477
        ]
      },
      "properties": {
        "s_code": "6",
        "s_name": "둔산은하수",
        "gugun_code": "0403",
        "addr": "대전광역시 서구 둔산동 1010번지 금정빌딩 1층",
        "doro_address": "대전광역시 서구 둔산로31번길 28, 금정빌딩 1층 (둔산동)",
        "open_dt": "20090828"
      }
    },
    {
      "type": "Feature",
      "geometry": {
        "type": "Point",
        "coordinates": [
          127.437812,
          36.366313
        ]
      },
      "properties": {
        "s_code": "682",
        "s_name": "대전송촌",
        "gugun_code": "0401",
        "addr": "대전광역시 대덕구 송촌동 459-1번지 1층",
        "doro_address": "대전광역시 대덕구 송촌북로36번길 36, 1층 (송촌동)",
        "open_dt": "20131029"
      }
    },
    {
      "type": "Feature",
      "geometry": {
        "type": "Point",
        "coordinates": [
          127.387437,
          36.353315
        ]
      },
      "properties": {
        "s_code": "1081",
        "s_name": "대전법원",
        "gugun_code": "0403",
        "addr": "대전광역시 서구 둔산동 1397 KD빌딩 103호",
        "doro_address": "대전광역시 서구 둔산로123번길 43 (둔산동)",
        "open_dt": "20160622"
      }
    },
    {
      "type": "Feature",
      "geometry": {
        "type": "Point",
        "coordinates": [
          127.3772612,
          36.3502188
        ]
      },
      "properties": {
        "s_code": "806",
        "s_name": "대전둔산",
        "gugun_code": "0403",
        "addr": "대전광역시 서구 둔산동 1046",
        "doro_address": "대전광역시 서구 대덕대로 189 (둔산동)",
        "open_dt": "20140710"
      }
    },
    {
      "type": "Feature",
      "geometry": {
        "type": "Point",
        "coordinates": [
          127.3895116,
          36.35098154
        ]
      },
      "properties": {
        "s_code": "126",
        "s_name": "대전시청역",
        "gugun_code": "0403",
        "addr": "대전광역시 서구 둔산동 1487번지",
        "doro_address": "대전광역시 서구 둔산로 142 (둔산동)",
        "open_dt": "20080613"
      }
    },
    {
      "type": "Feature",
      "geometry": {
        "type": "Point",
        "coordinates": [
          127.42331,
          36.35849
        ]
      },
      "properties": {
        "s_code": "1290",
        "s_name": "대전한남대DT",
        "gugun_code": "0401",
        "addr": "대전광역시 대덕구 중리동 231-10",
        "doro_address": "대전광역시 대덕구 한밭대로 1122 (중리동)",
        "open_dt": "20171109"
      }
    },
    {
      "type": "Feature",
      "geometry": {
        "type": "Point",
        "coordinates": [
          127.383509,
          36.348036
        ]
      },
      "properties": {
        "s_code": "790",
        "s_name": "대전시청사거리",
        "gugun_code": "0403",
        "addr": "대전광역시 서구 탄방동 587",
        "doro_address": "대전광역시 서구 둔산남로 50 (탄방동)",
        "open_dt": "20140619"
      }
    },
    {
      "type": "Feature",
      "geometry": {
        "type": "Point",
        "coordinates": [
          127.388665,
          36.348893
        ]
      },
      "properties": {
        "s_code": "1237",
        "s_name": "대전둔산남로",
        "gugun_code": "0403",
        "addr": "대전광역시 서구 탄방동 724",
        "doro_address": "대전광역시 서구 둔산남로 100 (탄방동)",
        "open_dt": "20170622"
      }
    },
    {
      "type": "Feature",
      "geometry": {
        "type": "Point",
        "coordinates": [
          127.38788750000003,
          36.3463971
        ]
      },
      "properties": {
        "s_code": "34",
        "s_name": "대전탄방",
        "gugun_code": "0403",
        "addr": "대전광역시 서구 탄방동 748번지 정우빌딩 1층",
        "doro_address": "대전광역시 서구 문정로 78, 정우빌딩 1층 (탄방동)",
        "open_dt": "20090115"
      }
    },
    {
      "type": "Feature",
      "geometry": {
        "type": "Point",
        "coordinates": [
          127.33854,
          36.3318521
        ]
      },
      "properties": {
        "s_code": "832",
        "s_name": "대전목원대",
        "gugun_code": "0403",
        "addr": "대전광역시 서구 도안동 849",
        "doro_address": "대전광역시 서구 동서대로 682 (도안동)",
        "open_dt": "20140923"
      }
    },
    {
      "type": "Feature",
      "geometry": {
        "type": "Point",
        "coordinates": [
          127.444318,
          36.354628
        ]
      },
      "properties": {
        "s_code": "1011",
        "s_name": "대전IC DT",
        "gugun_code": "0401",
        "addr": "대전광역시 대덕구 비래동 555-15",
        "doro_address": "대전광역시 대덕구 동서대로 1776 (비래동)",
        "open_dt": "20151209"
      }
    },
    {
      "type": "Feature",
      "geometry": {
        "type": "Point",
        "coordinates": [
          127.436726,
          36.35135
        ]
      },
      "properties": {
        "s_code": "609",
        "s_name": "대전터미널후문",
        "gugun_code": "0402",
        "addr": "대전광역시 동구 용전동 63-27,28,29,30번지",
        "doro_address": "대전광역시 동구 동서대로1695번길 43 (용전동)",
        "open_dt": "20130430"
      }
    },
    {
      "type": "Feature",
      "geometry": {
        "type": "Point",
        "coordinates": [
          127.43662219999999,
          36.3502842
        ]
      },
      "properties": {
        "s_code": "463",
        "s_name": "대전스타일마켓",
        "gugun_code": "0402",
        "addr": "대전광역시 동구 용전동 63-3번지2층",
        "doro_address": "대전광역시 동구 동서대로 1689, 2층 (용전동)",
        "open_dt": "20111222"
      }
    },
    {
      "type": "Feature",
      "geometry": {
        "type": "Point",
        "coordinates": [
          127.438064,
          36.349905
        ]
      },
      "properties": {
        "s_code": "600",
        "s_name": "대전터미널",
        "gugun_code": "0402",
        "addr": "대전광역시 동구 용전동 68-21번지",
        "doro_address": "대전광역시 동구 동서대로1695번길 4 (용전동)",
        "open_dt": "20130327"
      }
    },
    {
      "type": "Feature",
      "geometry": {
        "type": "Point",
        "coordinates": [
          127.39672889999997,
          36.3349683
        ]
      },
      "properties": {
        "s_code": "944",
        "s_name": "대전수침교DT",
        "gugun_code": "0403",
        "addr": "대전광역시 서구 용문동 250-3",
        "doro_address": "대전광역시 서구 계룡로 692 (용문동)",
        "open_dt": "20150624"
      }
    },
    {
      "type": "Feature",
      "geometry": {
        "type": "Point",
        "coordinates": [
          127.393417,
          36.323298
        ]
      },
      "properties": {
        "s_code": "1135",
        "s_name": "대전태평",
        "gugun_code": "0405",
        "addr": "대전광역시 중구 태평동 395-1 삼부프라자",
        "doro_address": "대전광역시 중구 태평로 71 (태평동)",
        "open_dt": "20161117"
      }
    },
    {
      "type": "Feature",
      "geometry": {
        "type": "Point",
        "coordinates": [
          127.4276569,
          36.32907873
        ]
      },
      "properties": {
        "s_code": "260",
        "s_name": "은행동",
        "gugun_code": "0405",
        "addr": "대전광역시 중구 은행동 48-14",
        "doro_address": "대전광역시 중구 중앙로 164 (은행동)",
        "open_dt": "20041223"
      }
    },
    {
      "type": "Feature",
      "geometry": {
        "type": "Point",
        "coordinates": [
          127.426603,
          36.327962
        ]
      },
      "properties": {
        "s_code": "747",
        "s_name": "대전중앙로역",
        "gugun_code": "0405",
        "addr": "대전광역시 중구 은행동 149",
        "doro_address": "대전광역시 중구 대종로 486 (은행동)",
        "open_dt": "20140320"
      }
    },
    {
      "type": "Feature",
      "geometry": {
        "type": "Point",
        "coordinates": [
          127.3982383,
          36.3182966
        ]
      },
      "properties": {
        "s_code": "1028",
        "s_name": "대전유천DT",
        "gugun_code": "0405",
        "addr": "대전광역시 중구 유천동 185-3",
        "doro_address": "대전광역시 중구 계백로 1604 (유천동)",
        "open_dt": "20160127"
      }
    },
    {
      "type": "Feature",
      "geometry": {
        "type": "Point",
        "coordinates": [
          127.408522,
          36.320472
        ]
      },
      "properties": {
        "s_code": "319",
        "s_name": "대전세이",
        "gugun_code": "0405",
        "addr": "대전광역시 중구 문화동 1-16번지 5층",
        "doro_address": "대전광역시 중구 계백로 1700, 5층 (문화동)",
        "open_dt": "20100430"
      }
    },
    {
      "type": "Feature",
      "geometry": {
        "type": "Point",
        "coordinates": [
          127.40852,
          36.320476
        ]
      },
      "properties": {
        "s_code": "604",
        "s_name": "대전세이1층",
        "gugun_code": "0405",
        "addr": "대전광역시 중구 문화동 1-16번지외 4필지 세이백화점 신관",
        "doro_address": "대전광역시 중구 계백로 1700, 외 4필지 세이백화점 신관 (문화동)",
        "open_dt": "20130418"
      }
    },
    {
      "type": "Feature",
      "geometry": {
        "type": "Point",
        "coordinates": [
          127.417463,
          36.318823
        ]
      },
      "properties": {
        "s_code": "1186",
        "s_name": "대전대사DT",
        "gugun_code": "0405",
        "addr": "대전광역시 중구 대사동 248-296",
        "doro_address": "대전광역시 중구 계룡로 949 (대사동)",
        "open_dt": "20170316"
      }
    },
    {
      "type": "Feature",
      "geometry": {
        "type": "Point",
        "coordinates": [
          127.348941,
          36.303755
        ]
      },
      "properties": {
        "s_code": "1095",
        "s_name": "대전가수원DT",
        "gugun_code": "0403",
        "addr": "대전광역시 서구 가수원동 655-20 스타벅스",
        "doro_address": "대전광역시 서구 계백로 1128 (가수원동)",
        "open_dt": "20160826"
      }
    },
    {
      "type": "Feature",
      "geometry": {
        "type": "Point",
        "coordinates": [
          127.337762,
          36.2986969
        ]
      },
      "properties": {
        "s_code": "839",
        "s_name": "대전관저",
        "gugun_code": "0403",
        "addr": "대전광역시 서구 관저동 1515",
        "doro_address": "대전광역시 서구 관저로 142 (관저동)",
        "open_dt": "20141015"
      }
    },
    {
      "type": "Feature",
      "geometry": {
        "type": "Point",
        "coordinates": [
          127.4561304,
          36.3070199
        ]
      },
      "properties": {
        "s_code": "502",
        "s_name": "대전가오",
        "gugun_code": "0402",
        "addr": "대전광역시 동구 가오동 604번지",
        "doro_address": "대전광역시 동구 동구청로 101 (가오동)",
        "open_dt": "20120413"
      }
    },
    {
      "type": "Feature",
      "geometry": {
        "type": "Point",
        "coordinates": [
          127.682234,
          37.645094
        ]
      },
      "properties": {
        "s_code": "308",
        "s_name": "대명비발디",
        "gugun_code": "0910",
        "addr": "강원도 홍천군 서면 팔봉리 1290-2 대명비발디파크((주)대명레저산업)",
        "doro_address": "강원도 홍천군 한치골길 262 (서면) 대명비발디파크",
        "open_dt": "20031129"
      }
    },
    {
      "type": "Feature",
      "geometry": {
        "type": "Point",
        "coordinates": [
          127.686053,
          37.648815
        ]
      },
      "properties": {
        "s_code": "287",
        "s_name": "오션월드입구",
        "gugun_code": "0910",
        "addr": "강원도 홍천군 서면 팔봉리 1290-2 대명비발디파크((주)대명레저산업)",
        "doro_address": "강원도 홍천군 한치골길 262 (서면) 대명비발디파크 오션월드",
        "open_dt": "20070706"
      }
    },
    {
      "type": "Feature",
      "geometry": {
        "type": "Point",
        "coordinates": [
          127.686053,
          37.648815
        ]
      },
      "properties": {
        "s_code": "411",
        "s_name": "오션월드",
        "gugun_code": "0910",
        "addr": "강원도 홍천군 서면 팔봉리 1290-2 대명비발디파크((주)대명레저산업)",
        "doro_address": "강원도 홍천군 한치골길 262 (서면) 대명비발디파크 오션월드",
        "open_dt": "20070706"
      }
    },
    {
      "type": "Feature",
      "geometry": {
        "type": "Point",
        "coordinates": [
          127.71833,
          37.86381381
        ]
      },
      "properties": {
        "s_code": "55",
        "s_name": "춘천이마트",
        "gugun_code": "0908",
        "addr": "강원도 춘천시 온의동 511 E-마트",
        "doro_address": "강원도 춘천시 경춘로 2353 (온의동) E-마트 춘천점내 1층",
        "open_dt": "20060829"
      }
    },
    {
      "type": "Feature",
      "geometry": {
        "type": "Point",
        "coordinates": [
          127.739326,
          37.856608
        ]
      },
      "properties": {
        "s_code": "1070",
        "s_name": "춘천석사DT",
        "gugun_code": "0908",
        "addr": "강원도 춘천시 석사동 799-4",
        "doro_address": "강원도 춘천시 후석로 13 (석사동)",
        "open_dt": "20160526"
      }
    },
    {
      "type": "Feature",
      "geometry": {
        "type": "Point",
        "coordinates": [
          127.7275212,
          37.87999215
        ]
      },
      "properties": {
        "s_code": "86",
        "s_name": "춘천명동",
        "gugun_code": "0908",
        "addr": "강원도 춘천시 중앙로2가 9",
        "doro_address": "강원도 춘천시 중앙로 57 (중앙로2가)",
        "open_dt": "20080926"
      }
    },
    {
      "type": "Feature",
      "geometry": {
        "type": "Point",
        "coordinates": [
          127.745062,
          37.872749
        ]
      },
      "properties": {
        "s_code": "508",
        "s_name": "강원대",
        "gugun_code": "0908",
        "addr": "강원도 춘천시 효자동 632-3번지",
        "doro_address": "강원도 춘천시 서부대성로 243-1 (효자동)",
        "open_dt": "20120424"
      }
    },
    {
      "type": "Feature",
      "geometry": {
        "type": "Point",
        "coordinates": [
          127.750579,
          37.879435
        ]
      },
      "properties": {
        "s_code": "1125",
        "s_name": "춘천후평DT",
        "gugun_code": "0908",
        "addr": "강원도 춘천시 후평동 700-1",
        "doro_address": "강원도 춘천시 후석로 318 (후평동)",
        "open_dt": "20161025"
      }
    },
    {
      "type": "Feature",
      "geometry": {
        "type": "Point",
        "coordinates": [
          127.9311,
          37.343887
        ]
      },
      "properties": {
        "s_code": "554",
        "s_name": "원주터미널",
        "gugun_code": "0916",
        "addr": "강원도 원주시 단계동 882-2 스타벅스 원주터미널점",
        "doro_address": "강원도 원주시 서원대로 178 (단계동)",
        "open_dt": "20120926"
      }
    },
    {
      "type": "Feature",
      "geometry": {
        "type": "Point",
        "coordinates": [
          127.930448,
          37.332972
        ]
      },
      "properties": {
        "s_code": "1232",
        "s_name": "원주무실",
        "gugun_code": "0916",
        "addr": "강원도 원주시 무실동 1852-1",
        "doro_address": "강원도 원주시 능라동길 73 (무실동)",
        "open_dt": "20170608"
      }
    },
    {
      "type": "Feature",
      "geometry": {
        "type": "Point",
        "coordinates": [
          127.949266,
          37.330449
        ]
      },
      "properties": {
        "s_code": "619",
        "s_name": "원주단구",
        "gugun_code": "0916",
        "addr": "강원도 원주시 단구동 1511-4번지 대신프라자 101,102,103호",
        "doro_address": "강원도 원주시 서원대로 402, 대신프라자 101,102,103호 (단구동)",
        "open_dt": "20130522"
      }
    },
    {
      "type": "Feature",
      "geometry": {
        "type": "Point",
        "coordinates": [
          127.980611,
          37.323157
        ]
      },
      "properties": {
        "s_code": "1131",
        "s_name": "원주혁신도시",
        "gugun_code": "0916",
        "addr": "강원도 원주시 반곡동 1886-3 골든스퀘어2차 1F",
        "doro_address": "강원도 원주시 혁신로 61 (반곡동)",
        "open_dt": "20161118"
      }
    },
    {
      "type": "Feature",
      "geometry": {
        "type": "Point",
        "coordinates": [
          128.493948,
          38.212094
        ]
      },
      "properties": {
        "s_code": "706",
        "s_name": "대명델피노",
        "gugun_code": "0914",
        "addr": "강원도 고성군 토성면 원암리 403-1",
        "doro_address": "강원도 고성군 토성면 미시령옛길 1153",
        "open_dt": "20131221"
      }
    },
    {
      "type": "Feature",
      "geometry": {
        "type": "Point",
        "coordinates": [
          128.527986,
          38.208822
        ]
      },
      "properties": {
        "s_code": "1167",
        "s_name": "설악워터피아",
        "gugun_code": "0903",
        "addr": "강원도 속초시 장사동 24-4",
        "doro_address": "강원도 속초시 미시령로2983번길 111 (장사동)",
        "open_dt": "20170120"
      }
    },
    {
      "type": "Feature",
      "geometry": {
        "type": "Point",
        "coordinates": [
          128.528526,
          38.21059
        ]
      },
      "properties": {
        "s_code": "1191",
        "s_name": "설악쏘라노",
        "gugun_code": "0903",
        "addr": "강원도 속초시 장사동 24-1,한화콘도미디엄 제이동 제이-1층호",
        "doro_address": "강원도 속초시 미시령로2983번길 111 (장사동)",
        "open_dt": "20170324"
      }
    },
    {
      "type": "Feature",
      "geometry": {
        "type": "Point",
        "coordinates": [
          128.58441240000002,
          38.1898709
        ]
      },
      "properties": {
        "s_code": "1007",
        "s_name": "속초DT",
        "gugun_code": "0903",
        "addr": "강원도 속초시 조양동 1002-39",
        "doro_address": "강원도 속초시 동해대로 4114 (조양동)",
        "open_dt": "20151127"
      }
    },
    {
      "type": "Feature",
      "geometry": {
        "type": "Point",
        "coordinates": [
          128.589453,
          38.202593
        ]
      },
      "properties": {
        "s_code": "629",
        "s_name": "속초중앙로",
        "gugun_code": "0903",
        "addr": "강원도 속초시 금호동 484-6번지",
        "doro_address": "강원도 속초시 중앙로 123 (금호동)",
        "open_dt": "20130614"
      }
    },
    {
      "type": "Feature",
      "geometry": {
        "type": "Point",
        "coordinates": [
          128.8962224,
          37.7544531
        ]
      },
      "properties": {
        "s_code": "854",
        "s_name": "강릉중앙로",
        "gugun_code": "0912",
        "addr": "강원도 강릉시 임당동 122-2",
        "doro_address": "강원도 강릉시 경강로 2096 (임당동)",
        "open_dt": "20141114"
      }
    },
    {
      "type": "Feature",
      "geometry": {
        "type": "Point",
        "coordinates": [
          128.948725,
          37.771376
        ]
      },
      "properties": {
        "s_code": "633",
        "s_name": "강릉안목항",
        "gugun_code": "0912",
        "addr": "강원도 강릉시 견소동 158번지",
        "doro_address": "강원도 강릉시 창해로14번길 40 (견소동)",
        "open_dt": "20130626"
      }
    },
    {
      "type": "Feature",
      "geometry": {
        "type": "Point",
        "coordinates": [
          129.114767,
          37.520193
        ]
      },
      "properties": {
        "s_code": "1164",
        "s_name": "동해DT",
        "gugun_code": "0901",
        "addr": "강원도 동해시 천곡동 1020",
        "doro_address": "강원도 동해시 중앙로 219 (천곡동)",
        "open_dt": "20170112"
      }
    },
    {
      "type": "Feature",
      "geometry": {
        "type": "Point",
        "coordinates": [
          128.077572,
          36.759398
        ]
      },